Time,placement_label,user_acc_x(m/s^2),user_acc_y(m/s^2),user_acc_z(m/s^2),rotation_rate_x(rad/s),rotation_rate_y(rad/s),rotation_rate_z(rad/s),gravity_x(m/s^2),gravity_y(m/s^2),gravity_z(m/s^2),attitude_roll(rad),attitude_pitch(rad),attitude_yaw(rad),target_delta_x,target_delta_y,target_delta_z,target_delta_roll,target_delta_pitch,target_delta_yaw
149550000000.0,2,-0.049347062799999994,-0.04647371435,0.0196329133,-0.026938,0.22382,-0.007719,-0.37337839209999996,-4.050930982,-8.923070835,-0.04182,0.42583,0.88586,0.0,0.0,0.0,0.0,0.0,0.0
149550000000.0,2,-0.0054426907500000005,-0.021005844299999996,-0.00752170055,0.042949,0.16356,0.002115,-0.35728567945,-4.0531865115,-8.922678569,-0.04002,0.42608,0.88588,-0.00019999999999997797,-9.999999999998899e-05,-0.00023333333333330764,0.0029369262990100453,-0.001101947045443863,-0.00039386832683932504
149550000000.0,2,0.011915079749999998,-0.00448163905,-0.028605998049999998,0.098874,0.075741,-0.013645,-0.3477045824,-4.0608356985,-8.919540440999999,-0.038963,0.42695,0.88581,-9.999999999998899e-05,-9.999999999998899e-05,-0.00023333333333352968,0.0015071578209151504,-0.0014063802367698663,6.847158154810185e-05
149550000000.0,2,0.08246411984999999,0.0105323421,-0.10351899739999999,0.13145,-0.000162,-0.034803,-0.34492930045000003,-4.072113346,-8.9145390495,-0.038673,0.42821,0.88553,0.0004999999999999449,-0.0004999999999999449,-0.00023333333333330764,-0.002555749823211606,-0.004443643620623217,-0.0029640844948743417
149550000000.0,2,0.0804733699,-0.0091397978,-0.15640626085,0.14399,-0.039682,-0.045385,-0.3460766785,-4.084960057499999,-8.9086550595,-0.038828,0.42965,0.88511,9.999999999998899e-05,-0.00019999999999997797,-0.00019999999999997797,-0.0011116152302170224,-0.0026992512188188655,-0.0005505684830738045
149550000000.0,2,-0.019338713799999997,-0.050621927299999994,-0.11194290974999999,0.13549,-0.037476,-0.049673,-0.34757709595,-4.097512569499999,-8.9027710695,-0.039021,0.43105,0.88464,9.999999999998899e-05,-9.999999999998899e-05,3.333333333332966e-05,0.00023098037890562084,-0.002975338272092287,0.0008026943365082029
149550000000.0,2,-0.0639785846,-0.06984296129999999,-0.055701772,0.10585,-0.008465,-0.048706,-0.34902848014999993,-4.1090844165,-8.897377411999999,-0.039207,0.43235,0.88423,-9.999999999998899e-05,4.999999999988347e-05,3.333333333332966e-05,0.0009134909783665157,-0.001614001962148226,0.0007397564362152109
149550000000.0,2,-0.060732583449999995,-0.08498442889999999,-0.07328509544999999,0.07309,0.04187,-0.031773,-0.3449391071,-4.1163413375,-8.894239284,-0.038763,0.43317,0.88385,-9.999999999998899e-05,5.0000000000105516e-05,3.333333333332966e-05,0.000256155603428343,-5.05943908011286e-05,0.0004930548619614117
149550000000.0,2,-0.11891543789999999,-0.07651148329999999,-0.007109821249999999,0.050891,0.085713,-0.003069,-0.3377802526,-4.1214407955,-8.8921798875,-0.037968,0.43374,0.88375,-9.999999999998899e-05,9.999999999998899e-05,0.00019999999999997797,-0.0010523875304696007,-0.00019324479753746182,2.0339589641732436e-05
149550000000.0,2,-0.1134433272,-0.07791383425000001,0.0706471066,0.035984,0.10605,0.023554,-0.32933672695,-4.1247750565,-8.890905022999998,-0.037025,0.43412,0.88396,-9.999999999998899e-05,4.999999999988347e-05,0.00019999999999997797,-0.0018150528407300803,-0.00021710855583156885,-0.00038892330081069515
149550000000.0,2,-0.02509521735,-0.07439324689999999,0.1039897166,0.027339,0.10078,0.038493,-0.32236419879999995,-4.13056098,-8.8884533605,-0.036252,0.43477,0.8844,-6.666666666665932e-05,5.0000000000105516e-05,0.00020000000000020002,-0.0017982673828453866,-0.00010482307462211793,-0.0004948862110733809
149550000000.0,2,0.0459931885,-0.04264912084999999,0.15740653915,0.027147,0.075209,0.037468,-0.3150484379,-4.1359546375,-8.886197830999999,-0.035438,0.43538,0.88476,-6.666666666665932e-05,9.999999999998899e-05,0.00019999999999997797,-0.001992242281894707,-0.0006109107096590183,-0.00036916179476984
149550000000.0,2,0.08074795609999999,-0.022927947699999996,0.23103486734999998,0.022583,0.030506,0.026861,-0.3099882065,-4.1415444279999996,-8.883844235,-0.03488,0.436,0.88499,-6.666666666665932e-05,0.00019999999999997797,0.00029999999999996696,-0.0010429229598295509,-0.0002549785639216484,-0.00026709677470204696
149550000000.0,2,0.11868988494999999,-0.0365788045,0.2716245917,0.009456,-0.031153,-0.00508,-0.30812494299999993,-4.147036151999999,-8.881294506,-0.03468,0.43662,0.88487,9.999999999998899e-05,3.333333333332966e-05,9.999999999998899e-05,-0.0010528550572346806,-0.0014803281551318825,0.0005720288163055531
149550000000.0,2,0.112580342,-0.019789819699999996,0.1574163458,0.025397,-0.064272,-0.044492,-0.30860546884999995,-4.151154945,-8.879333176,-0.034741,0.43709,0.88434,-9.999999999998899e-05,3.333333333332966e-05,9.999999999998899e-05,-0.00016140106252293673,-0.0005249835873943898,0.0006993388728626371
149550000000.0,2,0.062958693,0.0445614176,0.15594534829999998,0.057477,-0.068774,-0.065779,-0.3103020193,-4.1564505359999995,-8.876783447,-0.034943,0.43768,0.88359,-5.0000000000105516e-05,3.333333333332966e-05,0.00019999999999997797,0.00010671170756504367,-0.0009480464418352152,0.0006954536994324689
149550000000.0,2,-0.0115914603,0.07261824324999999,0.25770895535,0.082043,-0.067909,-0.068939,-0.31417564605000003,-4.1647861885,-8.872762720499999,-0.035394,0.43862,0.8829,-4.999999999988347e-05,9.999999999998899e-05,0.00019999999999997797,0.0008995934839876596,0.00014192001889101746,0.0008673459100065339
149550000000.0,2,-0.0273409402,0.0373633365,0.28430459015,0.067212,-0.059257,-0.075384,-0.3177158467,-4.1738083065,-8.8684477945,-0.035811,0.43963,0.88218,-1.6666666666775853e-05,9.999999999998899e-05,9.999999999998899e-05,-0.0005118738328754868,-0.0003359617051561514,0.0004493723227117774
149550000000.0,2,-0.01079712165,-0.0101596894,0.22313070744999997,0.025793,-0.038667,-0.079761,-0.31900051785,-4.179986496,-8.865407733,-0.035967,0.44033,0.88134,-1.666666666655381e-05,5.0000000000105516e-05,9.999999999998899e-05,-0.00046101895835032325,0.00019354067935450914,-1.8402099944941908e-05
149550000000.0,2,0.026389695149999996,-0.04990604184999999,0.15811261794999998,-0.003868,-0.007528,-0.071329,-0.3165390487,-4.1832226905,-8.864034801999999,-0.035695,0.44069,0.88048,-1.666666666655381e-05,4.999999999988347e-05,9.999999999998899e-05,0.000368738633759913,0.0005658467352394059,-0.00029421447521099653
149550000000.0,2,-0.006168382849999999,-0.04470851735,0.20634172265,-0.017645,0.019198,-0.045782,-0.31345976059999997,-4.185282087,-8.863152203499999,-0.035352,0.44093,0.87992,-1.6666666666775853e-05,4.999999999988347e-05,5.0000000000105516e-05,-0.0005223018111703004,8.990850426982e-05,-0.0008586047433920552
149550000000.0,2,0.024340105299999998,-0.0369906838,0.23633045834999997,-0.014536,0.023407,-0.0191,-0.3098509134,-4.187243417,-8.8623676715,-0.034949,0.44115,0.87962,-1.6666666666775853e-05,5.0000000000105516e-05,4.999999999988347e-05,-0.0009889145158470947,0.00024615870588950983,-0.0009499163965780988
149550000000.0,2,0.1107563051,-0.02395764595,0.20626326944999998,-0.016907,0.00955,0.007601,-0.3058890268,-4.1885182814999995,-8.861877339,-0.034503,0.44129,0.8795,-1.666666666655381e-05,9.999999999998899e-05,-2.4999999999941735e-05,-0.0001370014057254232,0.00048486497678923435,-0.0008505510737131516
149550000000.0,2,0.1604956339,0.0046581587499999995,0.13204654224999998,-0.013958,-0.00967,0.027915,-0.3031039382,-4.188420215,-8.862073472,-0.034189,0.44128,0.87955,9.999999999998899e-05,-9.999999999998899e-05,-2.4999999999941735e-05,-0.001418938388153712,-0.001237825188986852,-0.0006760756051630012
149550000000.0,2,0.16671305,0.03613750525,0.1254270535,-0.001476,-0.040685,0.042929,-0.30348639754999995,-4.188420215,-8.861975405499999,-0.034232,0.44128,0.8798,-9.999999999998899e-05,9.999999999998899e-05,-2.500000000016378e-05,0.0001379373960714303,0.00031028778338071383,-0.0007985485145956817
149550000000.0,2,0.1466290308,0.0242616521,0.1428240506,0.00032,-0.08119,0.046201,-0.3082426228,-4.1893028135,-8.861485072999999,-0.034771,0.44138,0.88014,9.999999999998899e-05,-9.999999999998899e-05,-2.4999999999941735e-05,-0.0006342698637942235,-0.0009971487629183429,-0.00047252790000748557
149550000000.0,2,0.12986946594999998,0.032469818149999996,0.07182390459999999,0.003261,-0.12701,0.024935,-0.31692150804999997,-4.18940088,-8.861092807,-0.03575,0.44139,0.88034,4.999999999988347e-05,3.333333333332966e-05,-9.999999999998899e-05,0.0005810653836508806,-0.00012190825358548985,-0.00027194275798711476
149550000000.0,2,0.0652534491,0.057231609399999994,0.0044914457,0.031994,-0.15385,-0.00379,-0.32891504099999996,-4.190381545,-8.8602102085,-0.037106,0.4415,0.88032,5.0000000000105516e-05,3.333333333332966e-05,-9.999999999998899e-05,-0.0007147805640225768,-0.00030051136866315886,8.628471129959459e-05
149550000000.0,2,0.01587696635,0.08944645465,0.04790548524999999,0.075685,-0.17018,-0.019696,-0.34283067734999995,-4.194892604,-8.857464346499999,-0.038686,0.44201,0.88016,9.999999999998899e-05,3.333333333332966e-05,-9.999999999998899e-05,2.320968497626641e-05,0.00024749082795971766,0.0002925678308247637
149550000000.0,2,-0.0253207703,0.09365350749999998,0.10688267835,0.1161,-0.18969,-0.024928,-0.35909990969999994,-4.2036205225,-8.852757154499999,-0.040542,0.443,0.87998,9.999999999998899e-05,6.666666666665932e-05,-9.999999999998899e-05,0.0004888046616673969,0.0007149938549888546,0.0004747552022763002
149550000000.0,2,-0.02291814105,0.05607442469999999,0.13302720725,0.12674,-0.19404,-0.027035,-0.37601638095,-4.215094303,-8.846578964999999,-0.042478,0.44429,0.87978,0.00019999999999997797,6.666666666688137e-05,-9.999999999998899e-05,-0.001139210891372644,0.0010752519841710217,0.0002771401470137991
149550000000.0,2,-0.018867994599999997,-0.008649465299999999,0.1207394748,0.10555,-0.1715,-0.018572,-0.39188354065000003,-4.226568083499999,-8.8404007755,-0.0443,0.44559,0.87964,3.333333333332966e-05,6.666666666665932e-05,4.999999999988347e-05,0.0008513823897037254,0.002245172078313651,-0.00023283578339527988
149550000000.0,2,-0.05034734109999999,-0.08195417405,0.13818550515,0.053696,-0.11247,-0.009157,-0.40410262654999995,-4.235492134999999,-8.835595517,-0.045704,0.4466,0.87962,3.333333333332966e-05,0.00019999999999997797,5.0000000000105516e-05,0.0018693231417173384,0.0017531308076830232,0.00027641082285895235
149550000000.0,2,-0.14099020704999998,-0.15067917725,0.1492179864,-0.008664,-0.037378,-0.005123,-0.41236963249999997,-4.24039546,-8.832849654999999,-0.046652,0.44716,0.87973,3.333333333332966e-05,9.999999999998899e-05,-9.999999999998899e-05,-0.00018070047042062498,0.0013499207964635662,-0.0008290234145208741
149550000000.0,2,-0.19059224275,-0.19936919449999999,0.11607150939999998,-0.064614,0.038729,-0.001079,-0.41469380854999993,-4.24039546,-8.832751588499999,-0.046915,0.44715,0.87989,9.999999999998899e-05,9.999999999998899e-05,-9.999999999998899e-05,-0.0006433324024401887,0.0017634989472163909,-0.0009336721772637835
149550000000.0,2,-0.2382623684,-0.23021110874999998,0.1428828905,-0.10047,0.090164,-0.001224,-0.4129580315,-4.237355398499999,-8.8343206525,-0.046711,0.44681,0.88009,9.999999999998899e-05,9.999999999998899e-05,-9.999999999998899e-05,-0.001389750673377932,0.001500808459508285,-0.0008860053811473034
149550000000.0,2,-0.27783220114999996,-0.25084430035,0.1529641267,-0.11311,0.10199,-0.011933,-0.40975125695,-4.2332366055,-8.8364781155,-0.046338,0.44634,0.88024,-0.00019999999999997797,0.0004999999999999449,0.00039999999999995595,0.0028679413094092054,0.002137437857895108,0.001914927291403773
149550000000.0,2,-0.19656449259999997,-0.23821333514999998,0.1447069274,-0.11007,0.067879,-0.031075,-0.40602472995,-4.2289216795,-8.8386355785,-0.045905,0.44586,0.8801,0.000600000000000156,-0.00039999999999995595,-0.0006999999999999229,-0.005953669189937116,-0.0007859645610914789,-0.003358195862555341
149550000000.0,2,-0.12755509655,-0.21496176799999997,0.10070448885,-0.10301,0.0039,-0.05016,-0.40500483835,-4.224312554,-8.840891108,-0.045779,0.44534,0.8797,9.999999999998899e-05,9.999999999998899e-05,-9.999999999998899e-05,3.8024994231444786e-05,0.00019577308211338185,-0.0005542586687044826
149550000000.0,2,-0.08475887594999999,-0.18586543745,0.023643833149999998,-0.086391,-0.070804,-0.07775,-0.40859407225,-4.2198995615,-8.842852438,-0.046173,0.44484,0.87896,0.00019999999999997797,7.500000000004725e-05,-0.00019999999999997797,-0.0002811260496538015,-2.775048506098443e-05,8.985223439922363e-05
149550000000.0,2,-0.026036655749999995,-0.12933990685,-0.02509521735,-0.04932,-0.11798,-0.097883,-0.4148016817,-4.217055633,-8.8439311695,-0.046868,0.44451,0.87793,4.999999999988347e-05,7.500000000004725e-05,-9.999999999998899e-05,0.00042658928753103176,-0.000430638700885444,0.0006567327365329945
149550000000.0,2,-0.014817848149999998,-0.048346784500000003,0.03823612835,-0.011062,-0.13854,-0.099914,-0.42287255464999995,-4.216761433499999,-8.84363697,-0.04778,0.44448,0.87682,5.0000000000105516e-05,7.49999999998252e-05,-0.00020000000000020002,9.692173296743656e-05,-0.0007102549874800079,0.0004740632389499122
149550000000.0,2,-0.030076995549999996,-0.011611073599999999,0.0801399438,0.009183,-0.1302,-0.08068,-0.43200254579999997,-4.218330497499999,-8.842460172,-0.048816,0.44466,0.87592,-0.00039999999999995595,7.500000000004725e-05,0.000300000000000189,0.005769415557651536,0.001283028304702949,0.0027932982832276076
149550000000.0,2,-0.051377039349999994,-0.035794272499999995,0.062429133899999996,0.011498,-0.091885,-0.055124,-0.43973018599999997,-4.22078216,-8.840891108,-0.049697,0.44494,0.87531,0.0001666666666666483,-9.999999999998899e-05,-9.999999999998899e-05,0.0012205245198047,9.927766266870641e-05,-0.0002469801720987874
149550000000.0,2,-0.08737725149999999,-0.06647928035,0.05811420789999999,-0.010576,-0.034192,-0.028576,-0.44442757134999994,-4.222155090999999,-8.840008509499999,-0.050232,0.44509,0.87501,0.0001666666666666483,-9.999999999998899e-05,-0.000300000000000189,0.0019835470158310886,0.00041433765879173023,-0.001455295679136992
149550000000.0,2,-0.16984137135,-0.09311414174999999,0.0150826277,-0.048444,0.03963,-0.018093,-0.44531016984999994,-4.2202918275,-8.840891108,-0.050328,0.44489,0.87495,0.0001666666666666483,-0.0005999999999999339,-0.0006999999999999229,-0.0030608762613555385,-0.001196375364315383,-0.004361399387027481
149550000000.0,2,-0.2514817326,-0.10414662299999998,0.0060016698,-0.087388,0.10176,-0.024667,-0.44164248274999995,-4.215290436,-8.843440837,-0.049899,0.44432,0.8749,9.999999999998899e-05,-9.999999999998899e-05,-0.00019999999999997797,-0.000546150346216856,0.00018337105122356867,-0.0017902656819094587
149550000000.0,2,-0.23956665284999998,-0.11182522995,-0.008825985,-0.11276,0.12222,-0.037549,-0.43424826865,-4.207641249,-8.8474615635,-0.049042,0.44345,0.87468,9.999999999998899e-05,-0.00020000000000020002,-0.00029999999999996696,-0.000631669524502998,0.0005133534760171088,-0.0027107746321862747
149550000000.0,2,-0.18414927369999998,-0.11643435544999998,-0.0694899219,-0.12242,0.10632,-0.051409,-0.4257655164,-4.198226865,-8.852364888499999,-0.04806,0.44239,0.87425,9.999999999998899e-05,-0.00019999999999997797,-9.999999999998899e-05,-0.0005874906851074391,-2.784650730669469e-06,-0.0010574853870556622
149550000000.0,2,-0.08163055459999999,-0.1040877831,-0.10617659954999999,-0.10025,0.075237,-0.053448,-0.41755735034999997,-4.189597012999999,-8.856777881,-0.047111,0.44142,0.87367,-9.999999999998899e-05,-5.0000000000105516e-05,-9.999999999998899e-05,0.0006452675694392784,0.0011507433737625306,-0.0005920086083645859
149550000000.0,2,-0.026654474699999996,-0.0753935252,-0.05225963785,-0.069661,0.036613,-0.044788,-0.41179104014999995,-4.183713023,-8.8598179425,-0.046445,0.44076,0.87313,9.999999999998899e-05,-4.999999999988347e-05,-9.999999999998899e-05,0.00046971578181476126,-0.0002030150689626975,0.00014687750359965168
149550000000.0,2,0.0137489233,-0.058388794099999995,0.026674088000000002,-0.058384,-0.012512,-0.030806,-0.40998661654999996,-4.1796922965,-8.861877339,-0.046231,0.44029,0.87271,-9.999999999998899e-05,-9.999999999998899e-05,-9.999999999998899e-05,0.0004567400101321839,-4.192553447168734e-05,0.00036506851163653486
149550000000.0,2,0.08364091785,-0.060820843299999997,-0.0049425516,-0.06416,-0.059363,-0.01686,-0.4118008468,-4.175083171,-8.8639367355,-0.046424,0.43978,0.87237,9.999999999998899e-05,-9.999999999998899e-05,-9.999999999998899e-05,-7.683091656796037e-05,-0.0014179223703987276,0.0004019814777521946
149550000000.0,2,0.1175228936,-0.05792788155,-0.06081103665,-0.074048,-0.089125,-0.007222,-0.41665513854999997,-4.169297247499999,-8.866388398,-0.046958,0.43913,0.87212,-9.999999999998899e-05,-0.00019999999999997797,-9.999999999998899e-05,0.000714380327492492,-0.0014905847211545975,-4.483250043230136e-05
149550000000.0,2,0.07078439969999999,0.0089240515,-0.028331411849999998,-0.080487,-0.094397,-0.008293,-0.4233236605499999,-4.16194226,-8.869526526,-0.047692,0.4383,0.87193,-4.999999999988347e-05,-9.999999999998899e-05,-0.00010000000000021103,0.000934098747845169,-0.0007468051253742836,-7.838440126803348e-05
149550000000.0,2,0.030488874849999997,0.0635078654,0.0164947853,-0.081316,-0.070935,-0.01901,-0.42911939069999994,-4.1538027405,-8.87305692,-0.048325,0.43739,0.87168,-5.0000000000105516e-05,-9.999999999998899e-05,-9.999999999998899e-05,0.00029258624704298075,0.00023483592682249643,0.00011969780879073078
149550000000.0,2,-0.0144746154,0.07586424439999999,0.0070313680499999994,-0.063844,-0.023122,-0.023333,-0.43173776625,-4.146643886,-8.876391180999999,-0.048601,0.43657,0.8714,-0.00019999999999997797,-9.999999999998899e-05,9.999999999998899e-05,0.0022514682470946568,0.0004607647277177218,0.0008854036400145482
149550000000.0,2,-0.09096648539999999,0.11830742559999999,0.05727083599999999,-0.037805,0.032071,-0.022315,-0.4309630409,-4.141348295,-8.8788428435,-0.0485,0.43598,0.87121,3.333333333332966e-05,-9.999999999998899e-05,-9.999999999998899e-05,0.0009895769420056877,0.0010272338541577053,-0.0002873353300953674
149550000000.0,2,-0.10486250844999999,0.13332140674999998,0.07667819634999999,-0.009744,0.076586,-0.015937,-0.4263539154,-4.1384063,-8.8804119075,-0.047973,0.43565,0.87111,3.333333333332966e-05,-9.999999999998899e-05,-9.999999999998899e-05,0.001149999153165271,0.0006765758949118794,-0.0005504071957024015
149550000000.0,2,-0.05526047275,0.11171735679999999,0.0478760653,0.001994,0.087128,7.8e-05,-0.41953829364999995,-4.1369353024999995,-8.8813925725,-0.047202,0.43549,0.87111,3.333333333332966e-05,-0.00019999999999997797,-9.999999999998899e-05,0.0008354456672593491,0.0002180377927563093,-0.0008408991035121771
149550000000.0,2,-0.0065900687999999995,0.06139943565,0.01569064,0.002866,0.068995,0.009719,-0.41343855735,-4.1363469035,-8.881980971499999,-0.046514,0.43542,0.87122,-0.0004999999999999449,0.00029999999999996696,0.000500000000000167,0.005835508193760164,0.002447504883223761,0.0026901306256583435
149550000000.0,2,0.04064856425,0.0016082905999999998,0.0012454445499999998,-0.004908,0.032827,0.01297,-0.40935899095,-4.1359546375,-8.8823732375,-0.046054,0.43537,0.87132,0.0001666666666666483,-9.999999999998899e-05,-0.00023333333333330764,0.000144780555572821,0.00022247057926305658,-0.00014498764395781683
149550000000.0,2,0.0593694591,-0.0410702502,0.0167497582,-0.021243,-0.010723,0.009815,-0.40862349219999994,-4.135170105499999,-8.8827655035,-0.04597,0.43529,0.87137,0.0001666666666666483,-9.999999999998899e-05,-0.00023333333333352968,-0.0001546549076543169,-0.00013861599576925343,-8.791788070661166e-05
149550000000.0,2,0.03892259385,-0.06993122115,0.03254827135,-0.039662,-0.054247,-0.002951,-0.41182046009999995,-4.133404908499999,-8.883451969,-0.046325,0.43509,0.87133,0.0001666666666666483,-0.00039999999999995595,-0.00023333333333330764,-0.003743934714571573,-0.0022162084845487318,-0.002890897671224524
149550000000.0,2,0.029312076849999997,-0.08915225515,0.02680157445,-0.060115,-0.086032,-0.016807,-0.41777309664999995,-4.129972581,-8.884726833499998,-0.046987,0.43471,0.87112,9.999999999998899e-05,-9.999999999998899e-05,0.0001666666666666483,0.00018882779386131254,-0.000836161649600875,0.00033936403895526435
149550000000.0,2,-0.0174950636,-0.08691633894999999,0.003726527,-0.071718,-0.081655,-0.036048,-0.42438277874999997,-4.125265389,-8.8866881635,-0.047719,0.43417,0.87074,-0.0002500000000000835,0.00019999999999997797,0.0001666666666666483,-0.00020210772883078043,-0.0005141184852204272,0.0004354921460159311
149550000000.0,2,-0.10055738909999999,-0.057133542899999994,-0.0067862018,-0.061744,-0.043365,-0.048905,-0.4291586173,-4.1202639975,-8.888747559999999,-0.048243,0.43361,0.87029,-0.00024999999999986144,0.00019999999999997797,0.0001666666666666483,0.004948826134600515,0.001270077778971368,0.0034346611368691327
149550000000.0,2,-0.18809154699999997,0.0029223816999999997,0.031969678999999994,-0.038863,0.013987,-0.052164,-0.430511935,-4.116635537,-8.890316624,-0.048387,0.4332,0.86986,0.0005999999999999339,-0.0004999999999999449,-0.0005999999999999339,-0.0044339370608195705,-0.002005964226265533,-0.002989937463573067
149550000000.0,2,-0.201820857,0.02958666305,0.03778502245,-0.011855,0.063829,-0.039391,-0.42785433284999996,-4.114968406499999,-8.8911992225,-0.048083,0.43302,0.86955,-0.0004999999999999449,0.00039999999999995595,0.0004999999999999449,0.00490547399140856,0.0022759572215456103,0.0029948880743376205
149550000000.0,2,-0.17655892659999997,0.0327934376,0.0255169033,0.004292,0.092444,-0.02233,-0.4222939623,-4.1148703399999995,-8.891493422,-0.047458,0.43301,0.86941,0.0005999999999999339,-0.000500000000000167,-0.0005999999999999339,-0.004111550181455426,-0.0016886991771323245,-0.003182498199886391
149550000000.0,2,-0.13810705195,0.015582766849999999,-0.00220649625,-0.001031,0.10206,-0.009544,-0.41525278759999995,-4.1147722735,-8.8919837545,-0.046666,0.43299,0.8694,9.999999999998899e-05,-0.00019999999999997797,-0.00019999999999997797,-0.001304734295595189,0.00037595233730947086,-0.0020485444813186926
149550000000.0,2,-0.0767860695,-0.0162594257,-0.0437572723,-0.022462,0.095834,-0.001029,-0.40759379395,-4.113105143,-8.893062486,-0.0458,0.43281,0.86942,9.999999999998899e-05,-0.00019999999999997797,-0.00019999999999997797,0.0004814252339336855,-0.00035456387669774436,-0.0006401738621222008
149550000000.0,2,-0.020270345549999996,-0.00911037785,-0.0462285481,-0.049384,0.069407,0.006443,-0.40125869805,-4.1090844165,-8.895219949,-0.045079,0.43235,0.86946,-0.0007999999999999119,0.000600000000000156,0.0007999999999999119,0.007458080125566813,0.0037024719663485417,0.003543524000810261
149550000000.0,2,0.0259287826,-0.013297817399999998,-0.0761388306,-0.062507,0.032216,0.010755,-0.39747333114999994,-4.1032004265,-8.898063877499998,-0.04464,0.4317,0.86952,-9.999999999998899e-05,-0.00029999999999996696,-0.0003500000000000725,0.0006630334796919879,-0.00044005723783557826,-0.00021465510885124162
149550000000.0,2,0.05990882484999999,-0.0022555294999999998,-0.07240249694999999,-0.056412,-0.001938,0.017229,-0.39644363289999995,-4.097512569499999,-8.9008097395,-0.044511,0.43106,0.86961,0.0005999999999999339,-0.000300000000000189,-0.00034999999999985043,-0.004017351631088184,-0.003938755743741362,-0.002969148035467939
149550000000.0,2,0.07198081099999999,0.02189824945,-0.009022117999999999,-0.030911,-0.017061,0.014096,-0.3969928053,-4.093687975999999,-8.90247687,-0.044564,0.43063,0.8697,-0.0005999999999999339,0.000500000000000167,0.0005999999999999339,0.0047187487160682,0.002037646631338541,0.0033813346925259113
149550000000.0,2,0.0616642152,0.026791767799999998,0.06986257459999999,-0.008431,-0.009782,0.010919,-0.39759101095,-4.092609244499999,-8.9029672025,-0.044629,0.4305,0.86978,0.0004999999999999449,-0.000500000000000167,-0.0004999999999999449,-0.0034410385433130686,-0.003357672569198167,-0.002397163200213853
149550000000.0,2,0.04500271685,0.040815277299999994,0.10372493705,-0.000847,0.004011,0.009839,-0.3972477782,-4.092511178,-8.9029672025,-0.04459,0.4305,0.86986,0.00019999999999997797,-0.00019999999999997797,-0.00019999999999997797,-0.0016435942775298584,-0.0016488669070144901,-0.0007750014285521634
149550000000.0,2,0.011424747249999999,0.03013583545,0.09154507775,-0.002825,0.022145,0.007669,-0.39569832749999995,-4.092511178,-8.903065268999999,-0.044415,0.43049,0.86994,-0.00019999999999997797,4.999999999988347e-05,9.999999999998899e-05,0.002546096701606715,0.00036775510926623234,0.0012283484054335658
149550000000.0,2,-0.0186718616,0.0228887211,0.0676266584,-0.00279,0.026406,0.007662,-0.394031197,-4.092315044999999,-8.903261402,-0.044228,0.43047,0.87004,-9.999999999998899e-05,5.0000000000105516e-05,9.999999999998899e-05,0.0007324866169798883,0.0008607891007361701,3.8208866780409245e-05
149550000000.0,2,0.010924608099999998,0.0196525266,0.054534780649999996,-0.009307,0.012606,0.008742,-0.39264845935,-4.0916285795,-8.903653667999999,-0.044072,0.43039,0.87012,9.999999999998899e-05,-9.999999999998899e-05,-9.999999999998899e-05,0.0004965399897328693,-0.00028155835137355645,0.00021550696253858082
149550000000.0,2,0.04135464305,0.02635046855,0.028566771449999997,-0.005191,-0.005543,0.009848,-0.3924032931,-4.0908440475,-8.904045933999999,-0.044042,0.4303,0.87019,3.333333333332966e-05,-3.333333333332966e-05,-3.333333333332966e-05,-0.0002933758063813352,8.06559574031418e-05,4.6967624640348316e-06
149550000000.0,2,0.04853311085,0.042403954599999995,0.021084297499999998,0.004291,-0.020538,0.00989,-0.3934526046499999,-4.090353715,-8.9041440005,-0.044158,0.43026,0.87027,3.333333333332966e-05,-3.333333333332966e-05,-3.333333333332966e-05,-8.670037027314059e-05,4.8315215678274015e-05,0.00019589035635997343
149550000000.0,2,0.05341682254999999,0.045934348599999994,0.024595078199999995,0.021332,-0.02281,0.012057,-0.39504128195,-4.09133438,-8.903653667999999,-0.044339,0.43037,0.87036,3.333333333332966e-05,-3.333333333332966e-05,-3.333333333332966e-05,-0.0016033291350308065,-6.28285372186177e-05,-0.0011146706000091378
149550000000.0,2,0.017671583299999998,0.043874952099999996,0.0270859673,0.034252,-0.007997,0.012053,-0.39625730654999997,-4.093687975999999,-8.902574936499999,-0.044481,0.43062,0.87048,-9.999999999998899e-05,0.00019999999999997797,0.00019999999999997797,0.0013528504086149917,0.00022407000195490134,0.0014540532659199357
149550000000.0,2,-0.050278694549999996,0.0258699427,0.04082508395,0.042935,0.01111,0.013103,-0.39713990504999996,-4.09721837,-8.900907806,-0.044589,0.43102,0.87069,0.00019999999999997797,-0.00019999999999997797,-0.00019999999999997797,-0.0023755047340940916,-0.0012421334294940856,-0.0008335186261544114
149550000000.0,2,-0.0641747176,-0.0163574922,0.06347844544999999,0.043033,0.027084,0.019481,-0.3968555121999999,-4.1016313625,-8.8988484095,-0.044567,0.43152,0.87095,-5.0000000000105516e-05,5.0000000000105516e-05,4.999999999988347e-05,-0.00021454153815975152,0.00012620805184027084,5.5402018301037304e-05
149550000000.0,2,-0.05184775855,-0.0678031781,0.08048317655000001,0.024849,0.022966,0.022659,-0.39631614644999996,-4.1057501555,-8.896985146,-0.044516,0.43198,0.87125,-4.999999999988347e-05,4.999999999988347e-05,5.0000000000105516e-05,0.002681761344679068,0.001064503552850038,0.0013366131388413416
149550000000.0,2,-0.035029353799999996,-0.11576750324999999,0.047846645349999994,0.006602,0.00607,0.018388,-0.3966789925,-4.1086921505,-8.895612215,-0.044563,0.43231,0.87152,9.999999999998899e-05,9.999999999998899e-05,3.333333333332966e-05,-0.0005279511993316888,0.00016589473208927785,-1.2303495579291113e-05
149550000000.0,2,-0.02672312125,-0.13582210249999999,0.028047019,-0.008334,-0.004448,0.00237,-0.3975027511,-4.1102612144999995,-8.894827683,-0.044659,0.43249,0.8716,5.0000000000105516e-05,0.00019999999999997797,3.333333333332966e-05,-0.0007654791537790029,-9.04292064907164e-05,0.00030266591997787917
149550000000.0,2,-0.0439141787,-0.10729455764999998,0.097281968,-0.011457,-0.006536,-0.015778,-0.39841476955,-4.111634145499999,-8.8941412175,-0.044765,0.43264,0.87152,4.999999999988347e-05,0.00020000000000020002,3.333333333332966e-05,-0.0002537792084255086,-0.00014238034101854424,0.00020700208861415548
149550000000.0,2,-0.0981841798,-0.07667819634999999,0.1677917815,-0.025156,0.004246,-0.03183,-0.39906200844999995,-4.112124478,-8.8939450845,-0.044839,0.4327,0.87129,-0.0005999999999999339,0.00019999999999997797,0.0006999999999999229,0.003684618513965343,0.003068481846809412,0.0038675099263150436
149550000000.0,2,-0.14570720569999998,-0.08699479215,0.17809857064999998,-0.052631,0.030053,-0.042594,-0.39808134344999996,-4.1106534805,-8.89463155,-0.044725,0.43253,0.87095,3.333333333332966e-05,-2.0000000000131024e-05,-0.00011666666666676484,-0.0001274137473561976,-0.0003453617890003535,0.0003044135496847733
149550000000.0,2,-0.1693020056,-0.10180283365,0.16030930755,-0.075842,0.06327,-0.040555,-0.39453133615,-4.10702502,-8.8964948135,-0.044319,0.43213,0.8706,3.333333333332966e-05,-1.999999999990898e-05,-0.0001166666666665428,-0.0007694580383627025,-0.00015984270198066142,0.00025070905683888256
149550000000.0,2,-0.20290939515,-0.14338302965,0.16609523105,-0.09595,0.086865,-0.034224,-0.3893632316,-4.102121695,-8.898946475999999,-0.043726,0.43157,0.87033,3.333333333332966e-05,-2.0000000000131024e-05,-0.0001166666666665428,-9.068382910470962e-05,0.00011083292395630551,-1.581284382118353e-05
149550000000.0,2,-0.22907353735,-0.16278058334999998,0.1219358861,-0.10655,0.091214,-0.04065,-0.38353808149999996,-4.095943505499999,-8.902084603999999,-0.043058,0.43088,0.87004,0.0001666666666666483,-1.999999999990898e-05,-0.00011666666666676484,0.00016780981774433545,0.00023219849877431642,3.3958969277714246e-06
149550000000.0,2,-0.18513974535,-0.11966074329999998,0.0342252085,-0.094842,0.082594,-0.047015,-0.3772029856,-4.0890788505,-8.9055169315,-0.042331,0.43011,0.86964,0.0001666666666666483,-2.0000000000131024e-05,-0.00011666666666676484,5.995018243198924e-05,-0.00022577923948308154,-0.0004123673309821274
149550000000.0,2,-0.1396270827,-0.0701371608,0.031547993049999994,-0.058804,0.049265,-0.052228,-0.3722800473,-4.084273592,-8.9078705275,-0.041768,0.42957,0.86915,0.0001666666666666483,-0.0004999999999999449,-0.0001166666666665428,-0.003953477830430485,-0.0031170227521903904,-0.0033166391379852445
149550000000.0,2,-0.07582501779999999,-0.04951377585,0.030557521399999996,-0.022798,0.010612,-0.059568,-0.36934785895,-4.0824103285,-8.908851192499998,-0.041435,0.42936,0.86855,-0.0006999999999999229,0.0004999999999999449,0.0005999999999999339,0.0051281191959769434,0.0022352776630731874,0.002516289248502307
149550000000.0,2,0.00538385085,-0.02038802535,-0.00140235095,0.013254,-0.01739,-0.059457,-0.36780821489999993,-4.083390993499999,-8.9084589265,-0.041264,0.42948,0.86789,0.00039999999999995595,-0.0004999999999999449,-0.0004999999999999449,-0.003118982528468095,-0.0017358667216422763,-0.002773152061729678
149550000000.0,2,0.028566771449999997,0.0014709974999999999,0.03329357675,0.028094,-0.024979,-0.051946,-0.36720020259999997,-4.0861368554999995,-8.9072821285,-0.041201,0.42978,0.86727,-0.0004999999999999449,0.00029999999999996696,0.00029999999999996696,0.006187797144506124,0.0013752612575277379,0.0023358060093125466
149550000000.0,2,0.0127878716,-0.023153500649999995,0.06086987654999999,0.022801,-0.015352,-0.044501,-0.36668045015,-4.08937305,-8.905811130999998,-0.04115,0.43014,0.86676,-9.999999999998899e-05,-9.999999999998899e-05,-9.999999999998899e-05,0.0014494092907130218,-0.0005277714356139995,-0.0004538433672868769
149550000000.0,2,0.00675678185,-0.0387166542,0.0537992819,-0.001659,-0.002369,-0.03923,-0.3654350056,-4.0908440475,-8.9051246655,-0.041014,0.43031,0.86631,0.0004999999999999449,-0.0007999999999999119,-0.0007999999999999119,-0.004293360203262431,-0.003710077818638302,-0.004501015826381544
149550000000.0,2,0.00122583125,-0.04108005685,0.05443671415,-0.029318,0.009577,-0.036098,-0.3633559958,-4.089961449,-8.905614997999999,-0.040778,0.43021,0.8659,-0.00029999999999996696,9.999999999998899e-05,0.00019999999999997797,0.0020648831147618285,0.0006618395481068351,0.0007800208025455779
149550000000.0,2,0.0231044674,-0.03861858769999999,0.0642139442,-0.048478,0.018254,-0.03081,-0.3602374811,-4.087215586999999,-8.9070859955,-0.040422,0.4299,0.86551,-9.999999999998899e-05,-0.00019999999999997797,0.00029999999999996696,-0.0010415031827042953,-1.6681162791964965e-05,5.355728305195262e-05
149550000000.0,2,0.02366344645,-0.04994526845,0.07204945755,-0.06777,0.010947,-0.024427,-0.35750142575,-4.082704528,-8.909145392,-0.040106,0.4294,0.86518,-0.000600000000000156,0.00039999999999995595,0.00029999999999996696,0.0026538890313579366,0.0018477933367819777,0.00266974598678546
149550000000.0,2,0.020309572149999996,-0.05724141605,-0.00026477954999999995,-0.077413,0.005699,-0.024435,-0.35550086914999995,-4.076820538,-8.9119893205,-0.039869,0.42873,0.86485,-9.999999999998899e-05,-9.999999999998899e-05,-1.999999999990898e-05,-0.00036010319747969977,9.470051614868247e-05,-0.00020404245572647195
149550000000.0,2,0.02982202265,-0.0089828914,-0.0414821295,-0.056127,-0.000869,-0.024388,-0.35393180514999995,-4.071132681,-8.914637116,-0.039682,0.4281,0.86452,-0.00029999999999996696,-9.999999999998899e-05,-2.0000000000131024e-05,-0.0002487200800154188,0.0018519131882837048,0.0008461530858850652
149550000000.0,2,0.0420705285,0.034068302099999996,0.021290237150000002,-0.027371,-0.006433,-0.023261,-0.35271578054999997,-4.06779842,-8.91620618,-0.039539,0.42773,0.86421,-5.0000000000105516e-05,-9.999999999998899e-05,-1.999999999990898e-05,0.0004832383789581396,-0.0014366531301552854,-0.0012645637743829985
149550000000.0,2,0.06632237395,0.05420135455,0.02138830365,-0.003914,-0.010883,-0.027484,-0.35138207615,-4.066425488999999,-8.916892645499999,-0.039385,0.42757,0.86386,-4.999999999988347e-05,-9.999999999998899e-05,-2.0000000000131024e-05,0.0009911499286107683,0.00012166370030208817,-0.00024396007848664913
149550000000.0,2,0.05607442469999999,0.07351064839999999,-0.0514064593,0.019665,0.002778,-0.027468,-0.34937171289999996,-4.066425488999999,-8.916990711999999,-0.03916,0.42757,0.86351,-9.999999999998899e-05,-0.00019999999999997797,-1.999999999990898e-05,0.00014701874137840187,-0.0006759368168807178,-0.0003211326812649351
149550000000.0,2,0.029792602699999997,0.1061471796,-0.03370545605,0.04012,0.028182,-0.024275,-0.34583151225,-4.067994553,-8.916402312999999,-0.038766,0.42774,0.86321,-9.999999999998899e-05,-0.00019999999999997797,-0.000180000000000069,9.999255489445691e-06,-0.00046186724983821037,-0.0004772566915388077
149550000000.0,2,0.02160404995,0.10713765125000001,-0.0091397978,0.038146,0.052701,-0.017917,-0.34047708135,-4.0699558829999996,-8.9157158475,-0.03817,0.42797,0.86299,-9.999999999998899e-05,-0.00019999999999997797,-0.00017999999999984695,9.690540041562556e-05,0.00010922033212468207,0.00018999362514737772
149550000000.0,2,0.03892259385,0.0847098427,-0.028664837949999997,0.022219,0.06668,-0.011565,-0.33355358645,-4.071034614499999,-8.915421648,-0.037396,0.42809,0.86282,-9.999999999998899e-05,-0.00019999999999997797,-0.000180000000000069,0.0001600173532729232,-0.00047087754371211155,-0.00048567204319577284
149550000000.0,2,0.0613307891,0.0357354326,-0.044296638049999996,-0.0033,0.081805,-0.005233,-0.3251492874,-4.070544282,-8.916010046999999,-0.036451,0.42803,0.8627,0.00039999999999995595,-0.00010000000000021103,-0.00017999999999984695,-5.282601895140182e-06,-0.00010449800732992287,-0.0004838964236387744
149550000000.0,2,0.07338316195,-0.00812971285,-0.0132193642,-0.029967,0.085219,-0.001017,-0.31608794279999997,-4.0684848855,-8.9172849115,-0.035432,0.4278,0.8626,0.00039999999999995595,-0.0007999999999999119,-0.000180000000000069,-0.006269749129068192,-0.0034227637375945363,-0.004238916866318471
149550000000.0,2,0.06016379775,-0.017622550049999998,0.025683616349999997,-0.049284,0.070462,-0.002094,-0.30827204275,-4.0647583585,-8.9192462415,-0.034548,0.42739,0.86252,-0.0008999999999999009,0.0005999999999999339,0.0008999999999999009,0.005918571582142262,0.0028988203076052432,0.003957029912647764
149550000000.0,2,0.08877960245,-0.02382035285,0.050729800449999994,-0.061167,0.049255,-0.006348,-0.30156429414999997,-4.060247299499999,-8.921501770999999,-0.033789,0.42688,0.86236,0.0007999999999999119,-0.0006999999999999229,-0.0008999999999999009,-0.006823598868895331,-0.003910752392763062,-0.003879463407559347
149550000000.0,2,0.13006559895,-0.014925721299999998,0.0735891016,-0.065668,0.022652,-0.002043,-0.29661193589999996,-4.055049775,-8.9240515,-0.033225,0.4263,0.86219,-9.999999999998899e-05,-9.999999999998899e-05,0.0004999999999999449,0.00024245117005294858,-0.00046212650593613347,0.00028129817351985054
149550000000.0,2,0.1209944477,0.0083160392,0.09789978695,-0.059464,-0.000841,0.000142,-0.29413085344999995,-4.05014645,-8.926405096,-0.032939,0.42575,0.86207,-0.0008999999999999009,0.0005999999999999339,0.0004999999999999449,0.00594495401934364,0.0025546988180948915,0.004165476415315339
149550000000.0,2,0.0948891454,0.04251182775,0.1257997062,-0.048909,-0.015843,-0.000883,-0.293611101,-4.0457334575,-8.928366426,-0.032873,0.42525,0.86198,0.0008999999999999009,-0.0007999999999999119,-0.0009999999999998899,-0.006118927084476478,-0.004237013090240049,-0.0034460660672621657
149550000000.0,2,0.0705686534,0.0641551043,0.1368027675,-0.04583,-0.029721,0.00128,-0.29487615884999996,-4.041516597999999,-8.9302296895,-0.033008,0.42478,0.8619,9.999999999998899e-05,-9.999999999998899e-05,-3.333333333332966e-05,0.0007431260776998849,-0.001702467537222141,-0.00010046340530253661
149550000000.0,2,0.046022608449999995,0.0942222932,0.0936731208,-0.037231,-0.02233,0.000214,-0.29651386939999996,-4.037201671999999,-8.9321910195,-0.033184,0.42429,0.86186,3.333333333332966e-05,-9.999999999998899e-05,-3.333333333332966e-05,0.0002352095828291878,-0.0006236429660255727,0.00022231640582434653
149550000000.0,2,-0.00383440015,0.12594680595,0.059889211549999995,-0.016813,-0.002255,0.002349,-0.29738666125,-4.0337693445,-8.933662017,-0.033276,0.42391,0.86188,3.333333333332966e-05,-9.999999999998899e-05,-3.333333333332966e-05,0.0012686513161876412,-3.687643508176741e-05,-0.00028952758259764844
149550000000.0,2,-0.0326169179,0.15092434349999997,0.051445685899999996,0.005754,0.023125,0.009816,-0.29673942235,-4.031906081,-8.9345446155,-0.0332,0.42371,0.86199,3.333333333332966e-05,-9.999999999998899e-05,-4.999999999988347e-05,0.0004574395572741752,0.00022678851220181429,0.00010690884119735067
149550000000.0,2,-0.03878530075,0.15894618319999998,0.0185737951,0.016474,0.040069,0.025817,-0.2949055788,-4.030925416,-8.935034948,-0.032994,0.4236,0.86226,3.333333333332966e-05,-9.999999999998899e-05,-5.0000000000105516e-05,0.0009484107668480957,0.00043896891024597373,0.00010358981157104763
149550000000.0,2,-0.0344213415,0.11246266220000001,-0.0411094768,0.010141,0.057157,0.038586,-0.2920812636,-4.030140884,-8.9355252805,-0.032676,0.42351,0.86267,3.333333333332966e-05,-9.999999999998899e-05,-2.4999999999941735e-05,7.75677930353047e-05,0.0003341905536804468,-0.00012648295237477347
149550000000.0,2,-0.02458527155,0.06704806605,-0.067469752,-0.009064,0.06157,0.04495,-0.2886097095,-4.0280814875,-8.9365059455,-0.032284,0.42328,0.86316,3.333333333332966e-05,1.999999999990898e-05,-2.500000000016378e-05,0.0012534839030446387,0.0005305616978046324,0.000800243189098715
149550000000.0,2,-0.0306752012,0.04439470455,-0.0660379811,-0.032575,0.054309,0.040653,-0.28581481425,-4.024453027,-8.9382711425,-0.031965,0.42287,0.86365,5.0000000000105516e-05,2.0000000000131024e-05,-2.4999999999941735e-05,1.63600255624341e-05,0.00035656746856504995,-6.709441848612441e-05
149550000000.0,2,-0.0078060934,0.010983447999999998,-0.05546641239999999,-0.039113,0.028802,0.026811,-0.28399077734999995,-4.020334234,-8.940134406,-0.031755,0.42241,0.86397,4.999999999988347e-05,1.999999999990898e-05,-2.4999999999941735e-05,-0.00037399428224144105,-0.0005387355386559101,-0.00015053586672747477
149550000000.0,2,0.015200307499999998,-0.0050013915,-0.009188831049999999,-0.041405,0.001129,0.014046,-0.28365735124999997,-4.0166077069999995,-8.9418015365,-0.031711,0.422,0.86413,4.999999999988347e-05,2.0000000000131024e-05,-2.4999999999941735e-05,4.272893508555642e-05,-0.00023475196113653674,0.0003192415434263851
149550000000.0,2,0.0237909329,0.00067665885,0.0220845758,-0.038387,-0.024465,0.009827,-0.2852166086,-4.0131753795,-8.9433706005,-0.03188,0.42161,0.86422,5.0000000000105516e-05,1.999999999990898e-05,-2.500000000016378e-05,-0.0010639326657796988,3.5437485226941234e-05,0.0007131998036054854
149550000000.0,2,0.0263014353,-0.01093441475,0.0253992235,-0.034218,-0.036221,0.010922,-0.28831551,-4.0102333845,-8.9445473985,-0.032222,0.42129,0.8643,9.999999999998899e-05,-9.999999999998899e-05,-2.500000000016378e-05,-0.0012928320624023826,-0.0013210613494967216,-0.00020607579514933527
149550000000.0,2,0.02011343915,-0.0100812362,-0.00463854545,-0.018188,-0.031028,0.014142,-0.29155170449999995,-4.0082720545,-8.9453319305,-0.032582,0.42106,0.86441,0.00010000000000021103,9.999999999998899e-05,-2.4999999999941735e-05,0.0006839478285167733,0.00017726162907361065,0.0006505006936720348
149550000000.0,2,-0.008835791649999999,0.013131104349999999,0.00304986815,0.008624,-0.011007,0.018423,-0.2938856872,-4.0082720545,-8.945233863999999,-0.032842,0.42107,0.86461,4.999999999988347e-05,5.0000000000105516e-05,-2.4999999999941735e-05,0.0007364565985068516,3.89129280282674e-05,0.0004075652655304851
149550000000.0,2,-0.03753004955,0.03678474415,0.04341403955,0.024732,0.00803,0.028025,-0.2952586182,-4.0099391849999995,-8.944449332,-0.032999,0.42125,0.86494,5.0000000000105516e-05,4.999999999988347e-05,-2.4999999999941735e-05,0.0005076904906647917,0.0009369703174040289,0.00030045787041824146
149550000000.0,2,-0.05002372164999999,0.01979962635,0.023055434149999998,0.023806,0.025087,0.026927,-0.29534687805,-4.011998581499999,-8.943566733499999,-0.033011,0.42148,0.86529,5.0000000000105516e-05,3.333333333332966e-05,-2.500000000016378e-05,0.0006498971808580611,0.00035044926212624006,-1.817815354687724e-06
149550000000.0,2,-0.06869558325,-0.0054721106999999995,-0.0016082905999999998,0.012191,0.036908,0.02155,-0.2943171798,-4.0133715125,-8.9429783345,-0.032899,0.42163,0.8656,4.999999999988347e-05,3.333333333332966e-05,-2.4999999999941735e-05,0.00028323363093685217,0.00029267933609378183,-0.00028716595973590775
149550000000.0,2,-0.0745109267,-0.030008348999999997,-0.0034715540999999996,-0.000524,0.039156,0.007649,-0.29254217615,-4.0139599115,-8.9427822015,-0.032701,0.4217,0.86578,4.999999999988347e-05,3.333333333332966e-05,2.4999999999941735e-05,-0.00018805465619226025,0.0005525794729113187,1.4346216292232539e-05
149550000000.0,2,-0.0891816751,-0.05565273875,-0.0122190859,-0.013266,0.03927,-0.004114,-0.29044355304999997,-4.0135676455,-8.9429783345,-0.032466,0.42166,0.86584,5.0000000000105516e-05,9.999999999998899e-05,2.500000000016378e-05,0.001240057135720729,0.0009924333599904411,0.00022345104136300975
149550000000.0,2,-0.11013848614999999,-0.07710968894999999,-0.021947282699999997,-0.016406,0.039305,-0.015859,-0.2881978302,-4.013077312999999,-8.943272534,-0.032213,0.4216,0.86578,3.333333333332966e-05,9.999999999998899e-05,2.4999999999941735e-05,-0.0005088928410698634,0.0002523980768780465,0.00021152429873297351
149550000000.0,2,-0.09662492245,-0.079629998,-0.0235555733,-0.013259,0.02969,-0.020105,-0.28614824034999997,-4.012783113499999,-8.943468667,-0.031985,0.42157,0.86563,3.333333333332966e-05,0.00019999999999997797,2.4999999999941735e-05,0.0010764450190157704,0.0012164788152058126,0.00037670573633050153
149550000000.0,2,-0.06634198725,-0.10505864144999999,-0.03254827135,-0.00806,0.013659,-0.017932,-0.2850008623,-4.0132734459999995,-8.943272534,-0.031857,0.42162,0.86547,3.333333333332966e-05,9.999999999998899e-05,0.000300000000000189,-0.0005222451064058053,-9.133805078143098e-05,0.0002628113130348775
149550000000.0,2,-0.03078307435,-0.11160948365,-0.04509097669999999,-0.002903,-0.005571,-0.012552,-0.2850989288,-4.0141560445,-8.942880268,-0.031869,0.42172,0.86534,-0.000500000000000167,0.0005999999999999339,0.00029999999999996696,0.007650072872727287,0.0024640446283803463,0.004878550567280676
149550000000.0,2,-0.0102185293,-0.10418584959999999,-0.049955075099999996,0.004484,-0.008842,-0.000792,-0.28591288075,-4.015627042,-8.9421938025,-0.031963,0.42189,0.86531,0.000400000000000178,-0.00029999999999996696,-0.00039999999999995595,-0.005447605248498022,-0.0016462798711527338,-0.0031652728882688164
149550000000.0,2,-0.01828940225,-0.077080269,-0.028066632299999998,0.010851,-0.006775,0.00989,-0.28726619844999995,-4.0174903055,-8.9414092705,-0.032117,0.42209,0.86541,-0.000600000000000156,0.0008000000000001339,0.0005999999999999339,0.0021523430916819963,0.006087028684802265,0.006366090863345636
149550000000.0,2,-0.02656621485,-0.043698432399999994,0.010071429549999998,0.016217,0.001697,0.017356,-0.28826647675,-4.0194516355,-8.9404286055,-0.032232,0.42231,0.86562,3.333333333332966e-05,9.999999999998899e-05,5.0000000000105516e-05,-5.545051155908531e-06,-0.00027912757476378225,9.066279791886123e-06
149550000000.0,2,-0.034911674,-0.0264975683,0.014778621550000001,0.015157,0.001706,0.016287,-0.2893550149,-4.0212168325,-8.9396440735,-0.032356,0.42251,0.86583,3.333333333332966e-05,3.333333333332966e-05,4.999999999988347e-05,-0.0002210234147128065,-0.0002784315591422004,-0.00015475641043186106
149550000000.0,2,-0.0549956932,-0.0014808041500000001,-0.010404855650000001,0.019483,0.001681,0.004555,-0.29052200624999996,-4.022883962999999,-8.9388595415,-0.03249,0.42269,0.86598,3.333333333332966e-05,3.333333333332966e-05,4.999999999988347e-05,0.00014235268783069355,-4.014177295896815e-06,-0.00010016998235251595
149550000000.0,2,-0.0800614906,0.0196721399,-0.040011132,0.02596,0.005897,-0.003979,-0.29133595819999997,-4.024453027,-8.938075009499999,-0.032584,0.42287,0.86602,5.0000000000105516e-05,3.333333333332966e-05,5.0000000000105516e-05,-0.0001926038438530564,0.0001033379575943183,6.475266999422802e-05
149550000000.0,2,-0.0864358131,0.01599464615,-0.024663724749999998,0.032423,0.009045,-0.011444,-0.29154189784999995,-4.026904689499999,-8.936996278,-0.032611,0.42314,0.86599,4.999999999988347e-05,3.333333333332966e-05,9.999999999998899e-05,-0.00034733604141690133,2.3883968624849317e-05,-8.886515871275869e-05
149550000000.0,2,-0.09897851844999998,-0.0235751866,-0.00856120545,0.030309,0.010128,-0.013583,-0.29187532395,-4.029944751,-8.935623347,-0.032653,0.42349,0.86593,5.0000000000105516e-05,3.333333333332966e-05,9.999999999998899e-05,-0.0003165497988213417,-0.00015076345098163912,0.00020450656825832247
149550000000.0,2,-0.08107157555,-0.07057846005,-0.033734876,0.025057,0.017632,-0.017874,-0.2910809853,-4.033082879,-8.934250416,-0.032569,0.42384,0.86581,5.0000000000105516e-05,3.333333333332966e-05,9.999999999998899e-05,-0.00021498338886594137,-8.860249646169827e-05,0.00023314779197070035
149550000000.0,2,-0.07273592305,-0.0671755525,-0.0173381572,0.027286,0.027205,-0.021088,-0.2892373351,-4.0363190735,-8.9327794185,-0.032369,0.4242,0.86565,3.333333333332966e-05,5.0000000000105516e-05,4.999999999988347e-05,8.382587920691131e-05,1.7119662031106486e-05,0.0002961515380757729
149550000000.0,2,-0.0666263801,-0.04563034245,0.019122967499999997,0.027342,0.03466,-0.020032,-0.28652089305,-4.0396533345,-8.931406487499999,-0.032069,0.42457,0.86548,3.333333333332966e-05,4.999999999988347e-05,5.0000000000105516e-05,-0.0007216121689624933,-0.00024168697023685404,-7.329074094020172e-05
149550000000.0,2,-0.05251461075,-0.0261445289,0.024085132399999997,0.033773,0.038867,-0.018961,-0.28326508525,-4.043085661999999,-8.929935489999998,-0.031711,0.42496,0.86531,3.333333333332966e-05,4.999999999988347e-05,0.00019999999999997797,-0.0006570787851969961,-0.0005394001677774263,-4.8495642173407294e-05
149550000000.0,2,-0.01579851315,-0.0097281968,0.0287530978,0.040156,0.037746,-0.016813,-0.27944049174999996,-4.046910255499999,-8.928268359499999,-0.031288,0.42539,0.86515,-2.4999999999941735e-05,5.0000000000105516e-05,9.999999999998899e-05,-1.8454086288866023e-05,-0.000622416706628437,3.480414666331977e-05
149550000000.0,2,0.00383440015,0.013876409749999999,0.05928119925,0.033716,0.033536,-0.015749,-0.27557667165,-4.050538716,-8.926797361999999,-0.030861,0.42579,0.86498,-2.500000000016378e-05,-9.999999999998899e-05,0.00019999999999997797,-0.00044187937547363054,-0.00040067946123012455,-0.00021478095921248497
149550000000.0,2,0.018593408399999997,0.028615804699999997,0.0563293976,0.025147,0.029345,-0.015757,-0.27192859785,-4.0529903785,-8.925816697,-0.030456,0.42606,0.8648,-2.4999999999941735e-05,9.999999999998899e-05,9.999999999998899e-05,4.1590801896973506e-05,-0.00028007655107620266,0.0003570206684748167
149550000000.0,2,0.033538742999999996,0.02023111895,0.047405346099999995,0.022982,0.026166,-0.014688,-0.26831975064999997,-4.055049775,-8.9249340985,-0.030055,0.42629,0.86462,-2.4999999999941735e-05,9.999999999998899e-05,0.00020000000000020002,-0.0005365733734022382,-0.0007886412272024579,-0.00010633842571156071
149550000000.0,2,0.023163307299999998,0.04169787579999999,0.107677017,0.024104,0.033615,-0.013632,-0.26453438375,-4.0574033709999995,-8.9240515,-0.029634,0.42656,0.86446,0.0010999999999998789,-0.001100000000000101,-0.0008000000000001339,-0.005099577319676418,-0.0091633020340669,-0.007052499012342894
149550000000.0,2,0.000588399,0.06057567705,0.12903590069999998,0.025134,0.030408,-0.01149,-0.26125896265,-4.0596589005,-8.923070835,-0.029271,0.42681,0.86433,-2.4999999999941735e-05,9.999999999998899e-05,9.999999999998899e-05,-0.00012923166009815024,-0.00047407670226640164,-2.8556304394578014e-05
149550000000.0,2,0.026909447599999997,0.04946474259999999,0.10015531644999999,0.030418,0.031419,0.000258,-0.2577972152,-4.062110562999999,-8.92209017,-0.028887,0.42709,0.86428,-2.500000000016378e-05,5.0000000000105516e-05,9.999999999998899e-05,-0.00022334721247296851,-0.0006253421554165417,-0.0004448377547666693
149550000000.0,2,0.05243615755,0.04755244585,0.13918578345,0.033466,0.022852,0.017356,-0.25519845295,-4.0653467574999995,-8.920619172499999,-0.0286,0.42745,0.86439,-2.4999999999941735e-05,4.999999999988347e-05,9.999999999998899e-05,-1.3145765553612687e-05,-7.083981193201083e-05,0.0002483598194806258
149550000000.0,2,0.06396877795,0.0283412185,0.1438831688,0.02904,0.012219,0.03231,-0.2540118483,-4.068582952,-8.9192462415,-0.028471,0.42781,0.86469,-2.4999999999941735e-05,9.999999999998899e-05,0.00019999999999997797,0.0028287253598740514,0.0010708181460621358,-0.00021886396724471457
149550000000.0,2,0.08091466915,0.01642613875,0.12578989955,0.01825,0.001647,0.03978,-0.25374706874999997,-4.070838481499999,-8.91816751,-0.028445,0.42806,0.86505,9.999999999998899e-05,0.0001500000000000945,0.0002500000000000835,-0.0020611929439092735,-0.0011942023729984985,-3.6999511799529206e-05
149550000000.0,2,0.06536132224999999,0.01617116585,0.11831723224999999,0.006499,-0.005705,0.031232,-0.2545021808,-4.072113346,-8.917579111,-0.028532,0.42821,0.86538,-0.00029999999999996696,0.0001500000000000945,0.0002500000000000835,0.0032277010255393757,0.0013005259501306377,0.0016481191288425512
149550000000.0,2,0.0329895706,0.013003617899999998,0.10592162664999999,0.000202,-0.001375,0.017337,-0.25490425344999995,-4.072701745,-8.9172849115,-0.028577,0.42827,0.86558,4.999999999988347e-05,5.0000000000105516e-05,4.999999999988347e-05,0.0005100888937765724,-0.00027187577370102467,0.00017111309806563946
149550000000.0,2,0.007511893899999999,0.0166516917,0.12879073445,-0.008258,0.007221,0.016239,-0.2550121266,-4.072701745,-8.9172849115,-0.02859,0.42828,0.86576,5.0000000000105516e-05,4.999999999988347e-05,5.0000000000105516e-05,-0.0001525958710011377,-0.00017084557084290353,0.00022748778169742745
149550000000.0,2,-0.0327149844,-0.0070411747,0.12629984535,-0.017856,0.009426,0.019422,-0.25549265244999997,-4.0722114125,-8.917481044499999,-0.028642,0.42822,0.86599,0.00029999999999996696,-0.00019999999999997797,-0.00019999999999997797,-0.003638041765649136,-0.0014878547838930167,-0.0008577642447356315
149550000000.0,2,-0.034401728199999995,-0.040609337649999994,0.08818139679999999,-0.027451,0.012697,0.023669,-0.25604182485,-4.071132681,-8.917971376999999,-0.028703,0.4281,0.86626,-9.999999999998899e-05,0.00029999999999996696,0.00029999999999996696,0.0022430098903565288,0.0007683966489604455,0.0017858250625121252
149550000000.0,2,-0.0188876079,-0.049415709349999996,0.07304973584999999,-0.031769,0.01272,0.034336,-0.25659099725,-4.0694655504999995,-8.918755909,-0.028762,0.42791,0.86662,0.00019999999999997797,-9.999999999998899e-05,-0.00019999999999997797,-0.003071211819641484,-0.00032935756872620736,-0.001032748705411951
149550000000.0,2,-0.02750765325,-0.053191269599999993,0.057869041649999994,-0.028512,0.020151,0.035396,-0.2569538433,-4.067994553,-8.919442374499999,-0.0288,0.42774,0.86702,-9.999999999998899e-05,0.00019999999999997797,0.00029999999999996696,0.0024837033113038753,0.00023623357881197293,0.001415431120629418
149550000000.0,2,-0.04610106165,-0.0303810017,0.0742363405,-0.028375,0.032942,0.02897,-0.2564635108,-4.066229356,-8.9202269065,-0.028743,0.42755,0.86739,0.00029999999999996696,-0.00019999999999997797,-0.00019999999999997797,-0.002675696044828757,-0.0004403597346420707,-0.0015305547793020846
149550000000.0,2,-0.0555644789,-0.0194956202,0.07491299935,-0.031388,0.048961,0.017196,-0.254188368,-4.064268026,-8.9212075715,-0.028484,0.42733,0.86764,5.0000000000105516e-05,9.999999999998899e-05,-6.666666666710341e-06,5.248156988058028e-05,-0.00011360052422992872,0.000282350495845074
149550000000.0,2,-0.05877125345,-0.0317931593,0.0718631312,-0.035502,0.063918,0.010759,-0.2502264814,-4.0620124965,-8.922286303,-0.028038,0.42707,0.86781,4.999999999988347e-05,3.333333333332966e-05,-6.666666666710341e-06,-0.00012634691054480562,2.8951199215754286e-05,-0.00014798978148380937
149550000000.0,2,-0.06230164745,-0.05111225979999999,0.0638609048,-0.051467,0.070438,0.013923,-0.24549967609999998,-4.0588743685,-8.9239534335,-0.027504,0.42672,0.86799,9.999999999998899e-05,3.333333333332966e-05,-6.666666666488297e-06,0.00018509704916491732,-5.833618845763056e-07,-1.3296250366362505e-05
149550000000.0,2,-0.04455161095,-0.06355689865,0.006541035549999999,-0.064335,0.064146,0.017115,-0.2411062969,-4.0541671765,-8.9261108965,-0.027005,0.4262,0.86818,5.0000000000105516e-05,3.333333333332966e-05,-6.666666666710341e-06,-0.001151064853070538,-0.00024891055674114426,0.00010989975499645088
149550000000.0,2,0.0067763951499999996,-0.057329675899999995,-0.0971839015,-0.027122,0.053175,0.025737,-0.23691885734999998,-4.050538716,-8.9278760935,-0.026531,0.42579,0.86842,4.999999999988347e-05,4.999999999988347e-05,-6.666666666710341e-06,0.00023235910577784624,0.00021255571770328885,0.0003118195037501992
149550000000.0,2,-0.011915079749999998,-0.038893173899999994,0.1901117169,-0.030541,0.023369,0.022582,-0.2354380532,-4.0499503169999995,-8.928170292999999,-0.026364,0.42572,0.86869,3.333333333332966e-05,5.0000000000105516e-05,-6.666666666710341e-06,0.00014845194121870797,-0.00033798001670204414,0.00021745061144684552
149550000000.0,2,-0.022006122599999997,-0.05853589385,0.22772021964999997,-0.029641,0.003112,0.024754,-0.2364187182,-4.0494599845,-8.928366426,-0.026473,0.42567,0.86897,3.333333333332966e-05,3.333333333332966e-05,-6.666666666710341e-06,0.0009109500191819553,-0.00012394860874387348,0.0005808310260259353
149550000000.0,2,-0.045581309199999996,-0.016671304999999997,0.0715100918,-0.009371,0.004007,0.026923,-0.23797797555,-4.0486754524999995,-8.928758691999999,-0.026647,0.42558,0.86929,3.333333333332966e-05,3.333333333332966e-05,-6.666666666488297e-06,0.0006465666854287289,-0.0004422895049960296,0.0003030675925427273
149550000000.0,2,-0.08626910004999999,-0.0216530832,0.20441961925,-0.013418,0.02855,0.022604,-0.23859579449999999,-4.0492638515,-8.9284644925,-0.026717,0.42564,0.86962,5.0000000000105516e-05,3.333333333332966e-05,-6.666666666710341e-06,0.0005985799816641268,-0.0003491501515024975,0.0004369847743067312
149550000000.0,2,-0.093751574,0.07920831205000001,0.0472484397,-0.014266,0.054132,0.019358,-0.2367913709,-4.0471063885,-8.9294451575,-0.026512,0.42541,0.86991,5.0000000000105516e-05,-1.6666666666775853e-05,-6.666666666710341e-06,0.0003053332092831651,-0.00024754151872685703,0.0006345606174950336
149550000000.0,2,-0.12520150055,-0.008492558899999999,-0.0738048479,-0.019437,0.068035,0.008653,-0.23332962345,-4.045046992,-8.930523889,-0.026122,0.42517,0.87013,5.0000000000105516e-05,-1.666666666655381e-05,-6.666666666710341e-06,-6.709933495685494e-05,-0.00018657146052247775,0.0004843966110794351
149550000000.0,2,-0.07581521114999999,0.01413138265,-0.08340555825,-0.017341,0.059498,0.002268,-0.22915199054999996,-4.042693396,-8.931700687,-0.02565,0.42491,0.87023,4.999999999988347e-05,-1.666666666655381e-05,-6.666666666710341e-06,0.00023468251961733522,0.00045308774246644035,0.00029716805397225765
149550000000.0,2,-0.012297539099999998,-0.02276123465,-0.09417325995,-0.007931,0.034912,0.001261,-0.2256314032,-4.041516597999999,-8.932289085999999,-0.025254,0.42478,0.87024,4.999999999988347e-05,-1.6666666666775853e-05,-6.666666666488297e-06,-4.7181861423162275e-05,0.00010628304769988439,0.00033260272157920046
149550000000.0,2,0.0008825985,-0.04839581775,-0.056907989949999994,0.003652,0.015636,0.001315,-0.22398388599999997,-4.041908864,-8.932092953,-0.025071,0.42483,0.87025,5.0000000000105516e-05,-1.6666666666775853e-05,-6.666666666710341e-06,-0.0006925033586907547,-0.0003226269657887748,0.0003305994767500986
149550000000.0,2,-0.0071490478500000005,-0.049955075099999996,-0.0098262633,0.000426,0.010338,-0.001884,-0.22299341434999997,-4.042791462499999,-8.931798753499999,-0.024961,0.42492,0.87023,2.4999999999941735e-05,-1.666666666655381e-05,-6.666666666710341e-06,-0.0005041031032725352,-0.000418169922021594,0.00027210602621519087
149550000000.0,2,-0.0274193934,-0.0744913134,0.007639380349999999,-0.01132,0.011495,0.002364,-0.2224736619,-4.0432817949999995,-8.9316026205,-0.024903,0.42497,0.87027,2.500000000016378e-05,9.999999999998899e-05,4.999999999988347e-05,0.00025991500784344757,-0.0005807992835800135,0.0004749425820565478
149550000000.0,2,-0.05066115389999999,-0.0975957808,0.0078060934,-0.02727,0.019082,0.004458,-0.22197352274999999,-4.042595329499999,-8.93189682,-0.024847,0.4249,0.87035,2.4999999999941735e-05,-1.4285714285744433e-05,5.0000000000105516e-05,0.0002579444022051125,-0.0003371052149436782,0.0005001911765349643
149550000000.0,2,-0.059330232499999996,-0.10657867219999999,-0.0039030467,-0.028306,0.026541,0.010848,-0.22123802399999998,-4.0414185315,-8.932485219,-0.024763,0.42476,0.87049,2.4999999999941735e-05,-1.4285714285744433e-05,2.4999999999941735e-05,0.00018316745115709576,-0.0005585274110966321,0.0001881612171283631
149550000000.0,2,-0.0671951658,-0.0753542986,0.0303221618,-0.016486,0.036033,0.009786,-0.21981605975,-4.040928199,-8.932681352,-0.024603,0.42471,0.87066,1.999999999990898e-05,-1.4285714285744433e-05,2.500000000016378e-05,0.00021338996985398317,-0.0001312520703204978,3.908834793087124e-05
149550000000.0,2,-0.0721573307,-0.033117057049999996,0.06749917194999999,0.005928,0.034783,0.006626,-0.21828622235,-4.0418107975,-8.932289085999999,-0.024433,0.42481,0.8708,2.0000000000131024e-05,-1.4285714285522388e-05,2.4999999999941735e-05,0.0001866007501106215,-7.255205346790028e-05,0.00025138767427662634
149550000000.0,2,-0.05150452579999999,-0.005236751099999999,0.04159000265,0.032533,0.022847,0.001357,-0.2170996177,-4.0445566594999995,-8.931112288,-0.024303,0.42512,0.87088,1.999999999990898e-05,-1.4285714285744433e-05,2.4999999999941735e-05,0.0001430729540928266,1.082708656463538e-05,0.00012500081686708797
