Time,placement_label,user_acc_x(m/s^2),user_acc_y(m/s^2),user_acc_z(m/s^2),rotation_rate_x(rad/s),rotation_rate_y(rad/s),rotation_rate_z(rad/s),gravity_x(m/s^2),gravity_y(m/s^2),gravity_z(m/s^2),attitude_roll(rad),attitude_pitch(rad),attitude_yaw(rad),target_delta_x,target_delta_y,target_delta_z,target_delta_roll,target_delta_pitch,target_delta_yaw
150000000000.0,-1,-0.052534224049999995,0.13991147555,-0.01495514125,0.003732,0.008555,-0.015366,-0.0716669982,-9.707897034499998,1.3863661104999998,-3.0899,1.4288,-1.2441,0.0,0.0,0.0,0.0,0.0,0.0
150000000000.0,-1,-0.047944711849999995,0.1200137827,-0.016720338249999998,0.008934,-0.000977,-0.012754,-0.07236327035,-9.707700901499999,1.3874448419999998,-3.0895,1.4287,-1.2445,5.0000000000105516e-05,-3.333333333310762e-05,-2.999999999997449e-05,-0.0009355479630230867,0.0019028913071272857,-0.00022632216791018678
150000000000.0,-1,-0.02362421985,0.1119527164,-0.0350685804,0.008932,-0.000985,-0.011551,-0.0710982125,-9.707602835,1.388425507,-3.0904,1.4286,-1.2436,4.999999999988347e-05,-3.333333333355171e-05,-3.0000000000085514e-05,0.0005691108581675763,-0.0008797957054025307,5.764333123892129e-05
150000000000.0,-1,-0.00981645665,0.1093833741,-0.0391873734,0.001579,-0.001225,-0.009241,-0.06993122115,-9.707602835,1.38862164,-3.0913,1.4285,-1.2428,2.4999999999941735e-05,-3.333333333310762e-05,2.0000000000020002e-05,-9.631523732545055e-05,-0.000571892093807147,-0.00016482638342196765
150000000000.0,-1,0.017298930599999998,0.11080533834999999,-0.03221484525,-0.008225,-0.001548,-0.005759,-0.0695291485,-9.707700901499999,1.3881313075,-3.0915,1.4286,-1.2425,2.4999999999941735e-05,1.1111111111183902e-05,2.999999999997449e-05,0.00022795950666298914,-0.000352667897838721,1.0556966787422795e-05
150000000000.0,-1,0.0337544893,0.0946537858,0.00459931885,-0.010705,-0.000388,-0.009418,-0.0684700303,-9.707798968,1.387052576,-3.0923,1.4287,-1.2418,2.500000000016378e-05,1.1111111111183902e-05,-2.999999999997449e-05,0.00019602366318860476,0.00011069917389927575,-0.00014041397309938475
150000000000.0,-1,0.014288289049999998,0.11967054995,0.0355392996,-0.013041,-0.004094,-0.008194,-0.0677051116,-9.707995101,1.385875778,-3.0928,1.4288,-1.2413,2.4999999999941735e-05,1.1111111110739813e-05,-4.0000000000040004e-05,-0.000562549427414627,-2.792440521881545e-05,6.007004331065602e-05
150000000000.0,-1,0.022869107799999996,0.15073801715,0.03886375395,-0.00186,-0.008574,-0.010386,-0.0665675402,-9.7080931675,1.3851893124999999,-3.0936,1.4289,-1.2406,2.4999999999941735e-05,1.1111111111183902e-05,1.0000000000065512e-05,0.0004631060406246057,-0.0003386845230668456,-0.0001983812217223324
150000000000.0,-1,0.0050013915,0.1188173714,-0.0061193496,0.000662,-0.010933,-0.007914,-0.0654495821,-9.707995101,1.385679645,-3.0944,1.4289,-1.2399,2.500000000016378e-05,1.1111111111183902e-05,-4.0000000000040004e-05,-8.17805407440364e-05,0.00046850939205378417,-9.029301363883135e-05
150000000000.0,-1,0.00659987545,0.0973211946,-0.01301342455,-0.005638,-0.005026,-0.015301,-0.0636059319,-9.7080931675,1.3853854455,-3.0957,1.4289,-1.2386,2.4999999999941735e-05,1.1111111111183902e-05,9.999999999998899e-05,0.0005561901736796937,-0.001710484498930409,0.00030761700805026493
150000000000.0,-1,-0.00556037055,0.08625929339999999,-0.00958109705,-0.010773,0.002055,-0.013064,-0.062370294,-9.708289300499999,1.384306714,-3.0966,1.429,-1.2377,2.4999999999941735e-05,1.1111111110739813e-05,-3.999999999992898e-05,-0.0005218718493091856,0.00029888573712799626,1.398445314215735e-05
150000000000.0,-1,-0.01846592195,0.11029539255,0.0042168595,-0.014638,0.009205,-0.017595,-0.0617426684,-9.708387366999998,1.3837183149999999,-3.097,1.4291,-1.2372,2.4999999999941735e-05,1.1111111111183902e-05,-9.00000000000345e-05,0.0002594973624592267,0.00036883208438465154,-0.00044548333748828384
150000000000.0,-1,-0.01846592195,0.11029539255,0.0042168595,-0.014638,0.009205,-0.017595,-0.0617426684,-9.708387366999998,1.3837183149999999,-3.097,1.4291,-1.2372,2.4999999999941735e-05,1.1111111111183902e-05,-9.00000000000345e-05,-0.0010617097864409342,0.002207942270826324,0.0002467045482417163
150000000000.0,-1,-0.04200188195,0.11443379885,0.03709855695,-0.007538,0.016621,-0.010386,-0.0624487472,-9.708191234,1.385091246,-3.0965,1.4289,-1.2375,2.500000000016378e-05,-4.999999999988347e-05,2.0000000000020002e-05,-0.0003931359938080803,-0.00011847177630608385,0.0005364753809518064
150000000000.0,-1,-0.051465299199999995,0.14483441384999998,0.033009183899999996,-0.00249,0.011921,-0.007845,-0.0640570378,-9.707897034499998,1.3869545095,-3.0954,1.4287,-1.2384,2.4999999999941735e-05,-4.999999999988347e-05,-2.999999999997449e-05,0.0005739059858389517,8.895018293175738e-05,-0.0005275740726875533
150000000000.0,-1,-0.0842195102,0.12324997719999999,0.02017227905,0.00508,0.00487,-0.004034,-0.06347844544999999,-9.707798968,1.3871506424999998,-3.0959,1.4287,-1.2379,3.333333333332966e-05,-4.999999999988347e-05,-2.0000000000020002e-05,0.00021717508628960047,-0.0003763900145321575,0.00013252293135757043
150000000000.0,-1,-0.0802380103,0.12549570005,-0.0099047165,0.010136,0.000196,-0.005103,-0.06296849965,-9.707700901499999,1.3882293739999998,-3.0963,1.4286,-1.2375,3.333333333332966e-05,-5.000000000032756e-05,-5.999999999994898e-05,0.0001312021525350371,-0.0011313050612078435,-0.00016605453415996507
150000000000.0,-1,-0.049857008599999995,0.109638347,-0.05779058844999999,0.010066,0.002638,-0.008747,-0.06207609449999999,-9.7075047685,1.3893081054999998,-3.0969,1.4285,-1.2368,3.333333333332966e-05,-0.00010000000000021103,3.999999999992898e-05,0.001003757423894136,-0.00196567390110558,-0.0010918706502032194
150000000000.0,-1,-0.04617951484999999,0.12898686745,-0.0847686826,0.005246,7.5e-05,-0.008776,-0.061262142549999996,-9.707406702,1.3900926374999998,-3.0975,1.4284,-1.2362,4.999999999988347e-05,-9.999999999976694e-05,8.500000000000174e-05,-0.0002796463461813836,-0.0004387037547097794,0.00010995367247179644
150000000000.0,-1,-0.052171378,0.13795995219999999,-0.06659696015,-0.002256,0.004683,-0.008942,-0.06020302435,-9.707406702,1.3900926374999998,-3.0983,1.4284,-1.2353,5.0000000000105516e-05,-3.333333333355171e-05,8.500000000000174e-05,-0.0004191152165506917,-0.0022274590737356714,0.0008955980830025467
150000000000.0,-1,-0.03095959405,0.11902331105,-0.04637564784999999,-0.002112,-0.000183,-0.004059,-0.05971269184999999,-9.7075047685,1.3897003715,-3.0986,1.4285,-1.235,2.4999999999941735e-05,-3.333333333310762e-05,-4.999999999999449e-05,-0.00020874387451197407,0.0008671136747382402,0.00022961638757390546
150000000000.0,-1,-0.0023339827,0.1399801221,-0.03990325885,-0.01065,-0.001667,-0.001748,-0.059771531749999995,-9.707798968,1.3875429085,-3.0985,1.4287,-1.2351,2.500000000016378e-05,-3.333333333355171e-05,2.0000000000020002e-05,0.00023505167463566679,-0.000880761360669613,-0.0005496478565469864
150000000000.0,-1,0.0157298666,0.12510343405,0.00408937305,-0.017979,-0.003167,0.007799,-0.059575398749999994,-9.707897034499998,1.3869545095,-3.0987,1.4288,-1.235,2.4999999999941735e-05,-9.999999999976694e-05,2.999999999997449e-05,4.571553144216978e-05,-0.0005009280542420669,0.00015822741212545566
150000000000.0,-1,0.0148276548,0.1111681844,0.0075315072,-0.02039,-0.004449,0.007785,-0.0595655921,-9.707995101,1.386071911,-3.0986,1.4289,-1.2351,2.4999999999941735e-05,-2.0000000000131024e-05,-7.00000000000145e-05,-0.00034732240107082646,0.0003382069096558027,1.7152711246026797e-05
150000000000.0,-1,0.0009414384,0.08323884520000001,0.017857909649999996,-0.0166,-0.007961,0.007885,-0.06020302435,-9.7080931675,1.3855815784999999,-3.0982,1.4289,-1.2357,3.333333333332966e-05,-2.0000000000131024e-05,3.0000000000085514e-05,0.001166247040211621,-0.0005265509913530142,-0.00029660934083919344
150000000000.0,-1,0.004020726499999999,0.06810718425,0.024771597899999998,-0.014192,-0.006688,0.009103,-0.060732583449999995,-9.7080931675,1.385679645,-3.0978,1.4289,-1.2362,3.333333333332966e-05,-1.9999999999686935e-05,-6.0000000000060005e-05,-0.0011345333606065378,0.0016391490428917521,0.00027656777918805275
150000000000.0,-1,-0.0024026292499999997,0.06111504279999999,-0.009080957899999999,-0.009164,-0.010119,0.003203,-0.06119349599999999,-9.708289300499999,1.3844047804999997,-3.0974,1.429,-1.2366,3.333333333332966e-05,-2.0000000000131024e-05,1.0000000000065512e-05,0.0003508599753567765,-0.00015607730813105292,-0.00033867626116990124
150000000000.0,-1,-0.003726527,0.06949972855,-0.0261249156,-0.012786,-0.011394,-0.002843,-0.06091890979999999,-9.708387366999998,1.383326049,-3.0976,1.4291,-1.2366,1.666666666655381e-05,-2.0000000000131024e-05,2.999999999997449e-05,0.00014230160431738526,6.475641515080177e-05,-0.0004422300589825845
150000000000.0,-1,-0.003726527,0.06949972855,-0.0261249156,-0.012786,-0.011394,-0.002843,-0.06091890979999999,-9.708387366999998,1.383326049,-3.0976,1.4291,-1.2366,1.6666666666775853e-05,-0.0001499999999996504,2.999999999997449e-05,0.001092394093845872,-0.0008262633217790416,-0.00038712607168678304
150000000000.0,-1,-0.01273883835,0.0893974214,-0.0360492454,-0.007932,-0.008848,-0.00362,-0.060428577299999994,-9.7085835,1.382345384,-3.0979,1.4292,-1.2364,1.6666666666775853e-05,-0.0001500000000000945,-4.999999999999449e-05,0.000322584954093319,-0.0020305813339558387,-0.0018302282082287569
150000000000.0,-1,-0.01077750835,0.1297223662,-0.0268309944,-0.010543,-0.004117,-0.000113,-0.060742390099999995,-9.708779632999999,1.38077632,-3.0976,1.4294,-1.2367,1.666666666655381e-05,-4.999999999988347e-05,-4.0000000000040004e-05,-0.00035385528028419877,0.0005227986625915282,-6.857051750763787e-05
150000000000.0,-1,-0.0059624432,0.13789130565,-0.0311263071,0.001669,-0.002522,-0.002377,-0.06047761054999999,-9.708877699499999,1.3800898544999998,-3.0978,1.4295,-1.2365,1.666666666655381e-05,-5.000000000032756e-05,-0.00015999999999993797,0.0011657942483103145,0.0013315436519245605,-0.0008796314096044533
150000000000.0,-1,-0.0214177236,0.14325554319999997,-0.03187161249999999,0.00634,0.00489,-0.004825,-0.0608796832,-9.708877699499999,1.3802859874999998,-3.0975,1.4294,-1.2368,1.6666666666775853e-05,-4.999999999988347e-05,2.999999999997449e-05,0.00028626073106585714,-0.0006474815572525827,-4.97038698505925e-05
150000000000.0,-1,-0.04796432515,0.1629276831,-0.015317987299999999,0.010946,0.014753,-0.012121,-0.06232126075,-9.7085835,1.3818550515,-3.0965,1.4293,-1.2376,4.999999999988347e-05,-4.999999999988347e-05,-2.999999999997449e-05,0.00189682720180806,-7.834419957819527e-05,-0.0020889940413595376
150000000000.0,-1,-0.075315072,0.15562172885,-0.049739328799999996,0.006935,0.025547,-0.01714,-0.06100716965,-9.7084854335,1.3827376499999997,-3.0975,1.4292,-1.2364,5.0000000000105516e-05,-0.00019999999999997797,-9.00000000000345e-05,0.00301293979041084,-0.003670673247925027,-0.0019474533929058069
150000000000.0,-1,-0.10117520804999999,0.16998847109999998,0.031008627299999997,-0.001744,0.028938,-0.020914,-0.05938907239999999,-9.7084854335,1.3827376499999997,-3.0987,1.4292,-1.2349,0.00019999999999997797,9.999999999976694e-05,-9.99999999995449e-06,-0.0017251150041186492,0.0014744531339201394,0.002162340388960793
150000000000.0,-1,-0.12449542174999999,0.1557492153,0.03297976395,-0.00672,0.031205,-0.021013,-0.05761406875,-9.7085835,1.3819531179999998,-3.0999,1.4293,-1.2333,5.0000000000105516e-05,-9.999999999976694e-05,2.999999999997449e-05,0.00029634878500583994,-0.0012626062023035622,9.991701070077852e-05
150000000000.0,-1,-0.09022118,0.11665010174999998,0.036529771249999995,-0.011432,0.024992,-0.017379,-0.06016379775,-9.708387366999998,1.3832279825,-3.0981,1.4291,-1.2348,5.0000000000105516e-05,-5.000000000032756e-05,4.999999999999449e-05,8.175922496800325e-06,-0.00026520360297865864,0.0008861152077908052
150000000000.0,-1,-0.0417174891,0.09381041389999999,0.04425741144999999,-0.002752,0.021602,-0.013605,-0.060634516949999995,-9.708191234,1.384895113,-3.0978,1.429,-1.2348,9.999999999998899e-05,-4.999999999988347e-05,-4.999999999999449e-05,-0.0002387084153832042,0.0006506922508273671,-9.182675014907105e-05
150000000000.0,-1,0.0192406473,0.10379358359999999,0.041776328999999994,0.004925,0.010893,-0.004928,-0.05919293939999999,-9.707798968,1.3874448419999998,-3.099,1.4287,-1.2336,-0.0013000000000000789,-9.999999999976694e-05,-0.001040000000000041,-0.027522586461333987,0.003353964216474825,-0.06319284052978613
150000000000.0,-1,0.0294591766,0.09636014289999999,0.049768748749999994,0.013638,0.006277,0.001269,-0.058192661099999994,-9.7073086355,1.3912694355,-3.0998,1.4283,-1.2327,9.999999999998899e-05,-0.00010000000000021103,1.0000000000065512e-05,-6.929389885623749e-05,-0.00029722416863720014,0.00020093809129217988
150000000000.0,-1,0.045806862149999995,0.09204521689999999,0.039520799499999995,0.008715,0.007381,-0.004828,-0.05642746409999999,-9.706818303,1.3943094969999998,-3.1011,1.428,-1.2312,3.333333333332966e-05,-2.4999999999941735e-05,2.999999999997449e-05,-0.0003693002810514212,-4.29963461041627e-05,-0.0001905338454144534
150000000000.0,-1,0.033666229449999995,0.09452629935,0.00399130655,-0.003668,0.011894,-0.012278,-0.05416212795,-9.706818303,1.3947998295,-3.1028,1.428,-1.2295,3.333333333332966e-05,-2.4999999999941735e-05,-4.0000000000040004e-05,-0.00017367581168548085,9.249253078635888e-05,0.00010412365989687089
150000000000.0,-1,0.033666229449999995,0.09452629935,0.00399130655,-0.003668,0.011894,-0.012278,-0.05416212795,-9.706818303,1.3947998295,-3.1028,1.428,-1.2295,3.333333333332966e-05,-2.4999999999941735e-05,2.0000000000020002e-05,-0.0002176108823730427,-0.00023243528139560432,4.7171229264453274e-05
150000000000.0,-1,0.027811659399999997,0.10831444924999999,-0.04489484369999999,-0.013799,0.022512,-0.018581,-0.05174969204999999,-9.7071125025,1.3926423664999998,-3.1045,1.4282,-1.2276,0.0004499999999998394,-2.4999999999941735e-05,-2.0000000000020002e-05,-0.00021026392746259503,-0.0002596565892085678,4.8693284526724057e-05
150000000000.0,-1,0.017622550049999998,0.12185743289999999,-0.037912508899999996,-0.017619,0.027258,-0.022309,-0.04904305665,-9.7075047685,1.3901907039999999,-3.1063,1.4285,-1.2254,0.00045000000000006146,-0.001100000000000101,0.0011900000000000244,0.050855590663441363,-0.012822047225472977,0.04059895098289257
150000000000.0,-1,0.014494228699999999,0.1187389182,-0.02295736765,-0.011315,0.022582,-0.020591,-0.04726805299999999,-9.707700901499999,1.3890139059999997,-3.1076,1.4286,-1.2239,5.0000000000105516e-05,4.999999999988347e-05,2.999999999997449e-05,0.0007055038891936594,-3.331561962571783e-05,0.00014078908012260527
150000000000.0,-1,0.023280987099999997,0.1390386837,0.0154160538,-0.001347,0.016769,-0.010749,-0.04617951484999999,-9.707798968,1.3883274405,-3.1083,1.4287,-1.2229,5.0000000000105516e-05,4.999999999988347e-05,-2.0000000000020002e-05,0.000575352789968564,2.9622255342642845e-05,3.429552917699752e-05
150000000000.0,-1,0.016073099349999998,0.12477000795,0.05941849235,0.005035,0.008465,-0.005734,-0.04555188925,-9.707700901499999,1.388817773,-3.1088,1.4286,-1.2223,9.999999999998899e-05,-9.999999999976694e-05,2.0000000000020002e-05,-0.0005043672875484351,-0.00026698336419528346,0.00041829992524222703
150000000000.0,-1,0.0026576021499999996,0.1275845165,0.0731772223,-0.000944,0.003414,-0.00093,-0.04545382275,-9.707700901499999,1.3889158395,-3.1089,1.4286,-1.2222,9.999999999998899e-05,3.333333333310762e-05,-6.499999999998174e-05,0.0004044945591561433,-4.3640626679719574e-05,1.3985088463730477e-05
150000000000.0,-1,0.01979962635,0.12437774195,0.0518771785,-0.004579,0.002095,-0.000961,-0.0453851762,-9.707798968,1.388425507,-3.1089,1.4287,-1.2222,9.999999999998899e-05,3.333333333355171e-05,-6.499999999998174e-05,-0.0004754248591523069,0.0003531232886608837,-0.0001807782722038631
150000000000.0,-1,0.030949787399999998,0.10934414749999999,0.00189268345,-0.007012,0.002074,-0.008212,-0.04486542375,-9.707897034499998,1.387837108,-3.1093,1.4287,-1.2218,9.999999999998899e-05,3.333333333310762e-05,0.00017999999999995797,0.0009671185127304582,-0.0003314557053220035,0.00017794461593112487
150000000000.0,-1,0.03283266419999999,0.10297963164999999,-0.01468055505,-0.003407,0.004627,-0.01181,-0.040472044549999996,-9.7080931675,1.3863661104999998,-3.1124,1.4289,-1.2186,9.999999999998899e-05,0.001000000000000334,-0.00012999999999996348,-0.024520453234105677,0.00797940619672799,0.024199268240661542
150000000000.0,-1,0.028635417999999996,0.11504181114999999,0.023290793749999997,-0.002097,0.002275,-0.015369,-0.0376183094,-9.707897034499998,1.3879351744999997,-3.1145,1.4287,-1.2165,-4.999999999988347e-05,9.999999999976694e-05,4.0000000000040004e-05,7.1886494541484325e-06,0.0004820355081056604,0.00026084823347272135
150000000000.0,-1,0.02745862,0.11498297124999998,0.022810267899999997,0.006462,0.00249,-0.009241,-0.0364415114,-9.707798968,1.388425507,-3.1154,1.4287,-1.2156,-5.0000000000105516e-05,-3.333333333310762e-05,9.99999999995449e-06,7.270105633927493e-05,0.00038320351560150456,7.850064718706307e-06
150000000000.0,-1,0.00348136075,0.1238579895,0.01697531115,0.002802,0.002423,-0.015305,-0.03475476759999999,-9.7075047685,1.3901907039999999,-3.1166,1.4285,-1.2143,9.999999999998899e-05,-3.333333333355171e-05,-5.500000000002725e-05,0.00010615947778469526,-0.0010978572247795082,-0.00018036088173500886
150000000000.0,-1,-0.00783551335,0.13626340174999999,0.0049229383,-0.000808,-0.000147,-0.009302,-0.03405849545,-9.707406702,1.391367502,-3.1171,1.4284,-1.2138,-9.999999999998899e-05,-3.333333333310762e-05,-5.499999999991623e-05,-0.00047033087589043454,0.0005717409540266782,-0.0010560732912234805
150000000000.0,-1,-0.030979207349999996,0.1070690047,-0.035696206,-0.006765,-0.005128,-0.014124,-0.03560794615,-9.7075047685,1.3903868369999999,-3.116,1.4285,-1.2149,5.0000000000105516e-05,4.999999999988347e-05,1.999999999990898e-05,-6.741548969935174e-05,-0.0003824519365724921,9.780708981965702e-05
150000000000.0,-1,-0.0260660757,0.12644694509999999,-0.021564823349999998,-0.001808,-0.007457,-0.005602,-0.035882532349999996,-9.707602835,1.3897984380000001,-3.1158,1.4285,-1.2152,4.999999999988347e-05,4.999999999988347e-05,4.999999999999449e-05,-0.00041952858627336553,0.0008090700255620753,0.0016505353103148934
150000000000.0,-1,-0.0260660757,0.12644694509999999,-0.021564823349999998,-0.001808,-0.007457,-0.005602,-0.035882532349999996,-9.707602835,1.3897984380000001,-3.1158,1.4285,-1.2152,-9.999999999998899e-05,-4.999999999988347e-05,-2.999999999997449e-05,-0.0003689728221685229,-0.0001037663198586447,-0.0004946933667220321
150000000000.0,-1,-0.05151433245,0.10093004180000001,-0.0307732677,0.001907,-0.008545,-0.00674,-0.03677493749999999,-9.707700901499999,1.3893081054999998,-3.1151,1.4286,-1.2159,3.333333333332966e-05,-4.999999999988347e-05,4.999999999999449e-05,0.0013553881404713142,-0.002147233482209021,-0.0011372105778924002
150000000000.0,-1,-0.03064578125,0.10902052805,-0.02560516315,0.003231,-0.012184,0.000548,-0.0375986961,-9.707700901499999,1.3893081054999998,-3.1145,1.4286,-1.2166,3.333333333332966e-05,9.999999999976694e-05,-2.3333333333375172e-05,-0.0008113552406108226,0.0009124140379628276,0.0009541231489471613
150000000000.0,-1,-0.0651357693,0.1078535367,-0.02307504745,-0.000313,-0.015874,-0.005463,-0.0394619596,-9.707700901499999,1.3890139059999997,-3.1132,1.4286,-1.2181,3.333333333332966e-05,-2.0000000000131024e-05,-2.333333333326415e-05,9.721435856846483e-05,0.00023902178003454289,-0.00027758981599923516
150000000000.0,-1,-0.033342609999999995,0.09805669334999999,-0.03986403225,-0.010076,-0.016183,-0.006426,-0.0396777059,-9.707897034499998,1.3873467755,-3.113,1.4288,-1.2185,-9.999999999998899e-05,-1.9999999999686935e-05,-2.3333333333375172e-05,-0.00015703839514413787,0.0009632396534471344,-0.00031809559692552725
150000000000.0,-1,-0.01850514855,0.09825282634999999,-0.04437509125,-0.01162,-0.006594,-0.00177,-0.03925601994999999,-9.7080931675,1.386071911,-3.1133,1.4289,-1.2183,-1.4285714285744433e-05,-2.0000000000131024e-05,0.0001300000000000745,0.00033889428479128014,-0.0013200316237524934,0.00044209410606033117
150000000000.0,-1,-0.00877695175,0.1007927487,-0.02797837245,-0.006413,-0.016108,-0.001565,-0.03896182045,-9.708289300499999,1.385091246,-3.1135,1.429,-1.2182,-1.4285714285744433e-05,-1.9999999999686935e-05,-0.00012000000000000899,-0.00048729072812214724,0.0012162148607561818,-0.000588244639355473
150000000000.0,-1,-0.00832584585,0.10660809215,0.0004903325,0.001075,-0.02076,0.004617,-0.03896182045,-9.708289300499999,1.3851893124999999,-3.1135,1.429,-1.2184,-1.4285714285744433e-05,-2.0000000000131024e-05,9.99999999995449e-06,0.0004494709242139905,-0.00013130747126410824,-0.0003423465077325716
150000000000.0,-1,-0.0115914603,0.12747664335,0.023447700149999997,0.005096,-0.031519,0.004823,-0.03913834014999999,-9.708191234,1.385679645,-3.1134,1.429,-1.2189,-1.4285714285522388e-05,-1.2499999999970868e-05,-2.999999999997449e-05,-0.00016201923989234146,-0.00022120842614992142,-0.00012968352061681898
150000000000.0,-1,-0.009639936949999999,0.11630686900000001,-0.0046581587499999995,-0.004576,-0.035412,0.001139,-0.0385401345,-9.708191234,1.3853854455,-3.1138,1.429,-1.2188,-1.4285714285744433e-05,-1.2499999999970868e-05,5.999999999994898e-05,0.0007852547720419434,-0.00031467767554493875,-0.0003748750381684651
150000000000.0,-1,-0.0135135637,0.13169350285,-0.040011132,-0.009629,-0.030729,0.001004,-0.038255741649999994,-9.708387366999998,1.3845028469999998,-3.114,1.4291,-1.219,-1.4285714285744433e-05,-1.2499999999970868e-05,2.0000000000020002e-05,-5.282335408041128e-05,-0.00031423023692300767,-0.0001638168678281815
150000000000.0,-1,-0.025154057249999997,0.119248864,-0.08432738335000001,-0.008545,-0.025817,-0.005067,-0.038736267500000005,-9.708877699499999,1.3804821205,-3.1135,1.4295,-1.2197,-1.4285714285744433e-05,-1.2500000000414957e-05,-8.999999999992347e-05,-0.001126165912892274,0.0010471075398137408,-0.00035972228142444607
150000000000.0,-1,-0.042815833899999996,0.12992830585,-0.04678752715,-0.001419,-0.018313,-0.009889,-0.03933447314999999,-9.709171899,1.379011123,-3.1131,1.4297,-1.2203,-0.0012000000000000899,-1.2499999999970868e-05,-0.001080000000000081,-0.026591353960135455,0.0029319831564886822,-0.06460071390918865
150000000000.0,-1,-0.043551332649999996,0.12223989225,-0.011110934449999998,0.001033,-0.01823,-0.01106,-0.03994248545,-9.7090738325,1.379403389,-3.1126,1.4296,-1.2209,0.0012000000000000899,-1.2499999999970868e-05,0.0011300000000000754,0.025868262572195544,-0.0030451639573905176,0.06534515303953148
150000000000.0,-1,-0.06035993075,0.12942816669999999,0.0180246227,0.003472,-0.018191,-0.006215,-0.041246769899999994,-9.708779632999999,1.381364719,-3.1117,1.4294,-1.222,-2.4999999999941735e-05,-1.2499999999970868e-05,-2.0000000000020002e-05,-0.00031621103838386233,0.00013911364737539955,-0.00028942114634666893
150000000000.0,-1,-0.060605097,0.13704793375,0.0043737659,0.002209,-0.01702,-0.006248,-0.04294332035,-9.7085835,1.3824434505,-3.1105,1.4293,-1.2234,-2.4999999999941735e-05,-1.2499999999970868e-05,-2.0000000000020002e-05,0.0005197930236144899,-0.001016452993575001,-8.971754897402207e-05
150000000000.0,-1,-0.060605097,0.13704793375,0.0043737659,0.002209,-0.01702,-0.006248,-0.04294332035,-9.7085835,1.3824434505,-3.1105,1.4293,-1.2234,-2.500000000016378e-05,-9.999999999976694e-05,-2.0000000000020002e-05,0.0015380910081748134,3.2523547766949434e-05,-0.0019580745351217566
150000000000.0,-1,-0.05484859345,0.11841529875,-0.017857909649999996,0.008329,-0.016844,-0.004965,-0.044218184849999995,-9.7085835,1.3830318494999998,-3.1096,1.4292,-1.2244,-2.4999999999941735e-05,-0.00010000000000021103,0.000160000000000049,-0.0021501247955213465,-0.0012411374960756838,0.0008026655831891993
150000000000.0,-1,-0.034931287299999995,0.0998905369,-0.0046679654,0.008373,-0.018034,-0.007354,-0.04317867994999999,-9.708387366999998,1.3839144479999999,-3.1104,1.4291,-1.2239,-5.0000000000105516e-05,-2.0000000000131024e-05,-3.0000000000085514e-05,-0.0007017686926775735,0.0006083532793219604,9.493822316386513e-05
150000000000.0,-1,-0.03170489945,0.11425727914999999,-0.0226337482,0.010665,-0.013138,-0.006189,-0.0420705285,-9.708289300499999,1.384895113,-3.1112,1.429,-1.2232,-4.999999999988347e-05,-1.9999999999686935e-05,0.0001300000000000745,-0.0006023197406814784,0.0036140675223137464,-0.00020904932156851075
150000000000.0,-1,-0.04878808375,0.11997455609999999,-0.02246703515,0.007292,-0.022937,-0.002487,-0.041442902899999995,-9.708191234,1.3857777114999998,-3.1117,1.4289,-1.2229,2.4999999999941735e-05,-2.0000000000131024e-05,-7.00000000000145e-05,-0.00084002306109765,0.0008938062874128683,5.9368710937146574e-05
150000000000.0,-1,-0.054456327449999994,0.14279463064999998,-0.018632634999999998,0.00354,-0.019421,-0.00586,-0.04070740415,-9.7080931675,1.3862680440000001,-3.1122,1.4289,-1.2226,2.4999999999941735e-05,-1.9999999999686935e-05,5.999999999994898e-05,-0.003059906008085367,-2.068431175561436e-05,0.0027835207181454713
150000000000.0,-1,-0.1128941548,0.15869121029999997,-0.041639035899999996,-0.003753,-0.020798,-0.013157,-0.039285439899999997,-9.7080931675,1.3861699775,-3.1133,1.4289,-1.2218,2.500000000016378e-05,-2.0000000000131024e-05,-4.999999999999449e-05,-0.000829351482392493,-0.0004946710464601711,-7.284902191928566e-05
150000000000.0,-1,-0.1023029728,0.13496892394999999,-0.054985886549999995,0.001115,-0.019416,-0.016721,-0.042099948449999994,-9.708289300499999,1.3845028469999998,-3.1112,1.4291,-1.224,2.4999999999941735e-05,9.999999999976694e-05,-0.00012999999999996348,0.0026861478424866636,0.0017515078235093018,-0.001373551026332187
150000000000.0,-1,-0.07713910889999999,0.11775825319999998,-0.026909447599999997,-0.001364,-0.018256,-0.02038,-0.040020938650000004,-9.708387366999998,1.3846009135,-3.1127,1.4291,-1.2227,5.0000000000105516e-05,0.00010000000000021103,-0.00019999999999997797,-0.002239866255228984,0.004371577578538011,0.0004899128192628055
150000000000.0,-1,-0.0716669982,0.09440861954999999,0.0501904347,0.002235,-0.01572,-0.02157,-0.0374221764,-9.708289300499999,1.3846989799999998,-3.1146,1.4291,-1.221,4.999999999988347e-05,-0.00010000000000021103,0.000140000000000029,0.0018262134604172253,-0.0034442865739223727,-0.000839542715694197
150000000000.0,-1,-0.07742350174999998,0.07450112005,0.0595263655,0.015851,-0.020171,-0.017715,-0.035107807,-9.708191234,1.385875778,-3.1163,1.429,-1.2195,0.00019999999999997797,-0.00019999999999997797,-7.00000000000145e-05,0.0015834656121089807,-0.005353061004493398,7.01589784268819e-05
150000000000.0,-1,-0.07561907814999999,0.1125607287,0.06263507355,0.019386,-0.015176,-0.024956,-0.03256788465,-9.707897034499998,1.3876409749999998,-3.1181,1.4288,-1.2178,9.999999999998899e-05,-4.999999999988347e-05,-2.4999999999941735e-05,0.0005148457353820746,-0.0014364451934041345,-2.836211622181395e-05
150000000000.0,-1,-0.06345883214999999,0.1330762405,-0.0234182802,0.016907,-0.014015,-0.028615,-0.03276401765,-9.707602835,1.389602305,-3.118,1.4286,-1.218,5.0000000000105516e-05,-5.000000000032756e-05,-2.5000000000052758e-05,-0.000934468163119595,0.0009177976093175388,0.00010484560701273793
150000000000.0,-1,-0.05035714775,0.15399382495,-0.0549368533,0.016706,-0.008003,-0.025093,-0.0325384647,-9.707602835,1.3898965044999998,-3.1182,1.4286,-1.2179,4.999999999988347e-05,-0.00010000000000021103,-0.0001300000000000745,-0.0017795427884974568,0.0013070496920850605,0.0004794454345775634
150000000000.0,-1,-0.050906320149999996,0.13422361854999998,-0.021584436649999997,0.013879,0.004027,-0.028911,-0.031842192549999995,-9.707406702,1.3910733025,-3.1187,1.4284,-1.2174,4.999999999988347e-05,-9.999999999976694e-05,0.00039000000000000146,-0.0005249444822434945,-0.005609213880830577,0.0012495437838269119
150000000000.0,-1,-0.050906320149999996,0.13422361854999998,-0.021584436649999997,0.013879,0.004027,-0.028911,-0.031842192549999995,-9.707406702,1.3910733025,-3.1187,1.4284,-1.2174,5.0000000000105516e-05,-9.999999999976694e-05,-0.00015999999999993797,3.701449520665534e-05,0.0012139101116088735,-0.0009688692124667497
150000000000.0,-1,-0.06567513505,0.1404704546,0.0278901126,0.009845,0.014742,-0.0231,-0.0326365312,-9.7069163695,1.3944075635,-3.1182,1.4281,-1.2177,-9.999999999998899e-05,-0.00010000000000021103,-2.0000000000020002e-05,-0.0020744814784532384,0.005733881144070807,-0.0002402401681922406
150000000000.0,-1,-0.1157969232,0.14308883014999998,0.02654660155,0.015747,0.022209,-0.027938,-0.0351862602,-9.706426037,1.3980360239999998,-3.1164,1.4277,-1.2192,9.999999999998899e-05,-0.00010000000000021103,-9.999999999998899e-05,0.0001446139121001888,0.0007893099671789638,0.00018053745423340928
150000000000.0,-1,-0.1468840037,0.1308795509,0.017063571,0.019117,0.031999,-0.030436,-0.038971627099999996,-9.705837638,1.4016644845,-3.1138,1.4273,-1.2214,9.999999999998899e-05,-9.999999999976694e-05,-0.0001300000000000745,-0.002076489370865353,0.0006947223589839346,0.0006510969560205027
150000000000.0,-1,-0.13765594605,0.12416199565,0.0328915041,0.015292,0.036728,-0.031757,-0.0419136221,-9.7053473055,1.4055871445,-3.1118,1.4269,-1.223,0.00019999999999997797,-9.999999999976694e-05,0.00034000000000000696,0.002539649143702194,-0.0046876501014399,0.000740081270085291
150000000000.0,-1,-0.10709842465,0.13987224895,0.037481016299999996,0.005831,0.025519,-0.02571,-0.043884758749999996,-9.704856973,1.4086272059999998,-3.1105,1.4266,-1.224,9.999999999998899e-05,-0.00010000000000021103,-0.00039999999999995595,-0.0024295878424933637,0.0039186249598872624,0.00023760530413241554
150000000000.0,-1,-0.0823954733,0.151414676,0.0615269221,0.008696,0.012281,-0.021875,-0.04180574895,-9.704758906499999,1.409607871,-3.1119,1.4265,-1.2223,0.00019999999999997797,-4.999999999988347e-05,7.999999999996898e-05,0.0008727297007613544,-0.0016657944466687002,0.0005044407579308796
150000000000.0,-1,-0.043776885599999996,0.154356671,0.036421898099999996,0.00409,0.00363,-0.017896,-0.040020938650000004,-9.704660839999999,1.410000137,-3.1132,1.4265,-1.2209,9.999999999998899e-05,-4.999999999988347e-05,-0.00013999999999991797,0.0006563018927290276,-0.00012459285238541895,-0.0005226061668466286
150000000000.0,-1,0.0030302548499999997,0.11555175695,0.02944936995,0.003239,-0.008529,-0.01172,-0.0387951074,-9.704660839999999,1.410392403,-3.1141,1.4264,-1.2201,9.999999999998899e-05,-5.000000000032756e-05,-3.500000000000725e-05,-0.000824308172176158,0.0014574950705616985,0.0005853849343320228
150000000000.0,-1,0.036196345149999996,0.1040093299,0.021358883699999998,0.002163,-0.013414,-0.009259,-0.037392756449999995,-9.704660839999999,1.4104904695,-3.1151,1.4264,-1.2192,9.999999999998899e-05,-4.999999999988347e-05,-3.500000000000725e-05,0.0008288567934859881,-0.0001423200647856504,-0.00030821580943785065
150000000000.0,-1,0.0718631312,0.09584039045,-0.0059036033,-0.005377,-0.007598,-0.009443,-0.0364022848,-9.704660839999999,1.4100982035,-3.1158,1.4265,-1.2186,4.999999999988347e-05,-4.999999999988347e-05,-0.00014999999999998348,-0.0010527632483898763,0.0015158619183686106,-0.00013097621913971125
150000000000.0,-1,0.08562186114999999,0.10093984845,-0.04178613565,-0.011687,-0.001726,-0.012017,-0.035048967099999995,-9.704856973,1.409019472,-3.1167,1.4266,-1.2177,5.0000000000105516e-05,-4.999999999988347e-05,-6.0000000000060005e-05,-0.0001733432642627708,0.0001849916473437574,-0.0005536612339960278
150000000000.0,-1,0.04351210605,0.06818563744999999,-0.029831829299999998,-0.014524,0.010268,-0.011023,-0.0272036471,-9.7055434385,1.403920014,-3.1222,1.4271,-1.2122,5.0000000000105516e-05,-4.999999999988347e-05,9.999999999998899e-05,0.00018022945708562332,-7.199487314535347e-06,0.0003543452940908409
150000000000.0,-1,-0.00051975245,0.08018897705,-0.0293414968,-0.011083,0.017626,-0.011081,-0.026115108949999997,-9.7059357045,1.4016644845,-3.123,1.4273,-1.2113,4.999999999988347e-05,-5.000000000032756e-05,-0.00017000000000000348,0.0004715027024604357,0.0007481825319795021,-0.0007590011991509549
150000000000.0,-1,-0.0014121576,0.08026743025,-0.028831550999999997,-0.00247,0.016686,-0.012155,-0.025232510450000002,-9.706033771,1.401174152,-3.1236,1.4274,-1.2104,0.00010000000000021103,-4.999999999988347e-05,-0.00020999999999993246,0.0007243924842834648,0.002000373129150468,-0.0005768687456102484
150000000000.0,-1,-0.013533176999999999,0.10048874254999998,-0.015102240999999999,0.001181,0.018058,-0.019344,-0.02433029865,-9.706033771,1.4010760855,-3.1242,1.4274,-1.2096,9.999999999998899e-05,-4.999999999988347e-05,6.999999999990347e-05,0.000963214986480887,-0.001070443874530369,0.0001416157529421369
150000000000.0,-1,-0.013533176999999999,0.10048874254999998,-0.015102240999999999,0.001181,0.018058,-0.019344,-0.02433029865,-9.706033771,1.4010760855,-3.1242,1.4274,-1.2096,9.999999999998899e-05,-0.00010000000000021103,-0.00017000000000000348,-0.0013195006849779922,0.004477013911297956,4.344512457787886e-05
150000000000.0,-1,-0.0430904201,0.1434909028,-0.005246557749999999,0.010818,0.023167,-0.016879,-0.024693144699999996,-9.705739571499999,1.402743216,-3.124,1.4272,-1.2096,9.999999999998899e-05,-9.999999999976694e-05,6.0000000000060005e-05,0.002976129832515273,-0.0038164631155501727,-0.0014029397692265633
150000000000.0,-1,-0.05066115389999999,0.15364078555,-0.03382313585,0.0122,0.018382,-0.017996,-0.02311427405,-9.705641505,1.403920014,-3.1251,1.4271,-1.2082,9.999999999998899e-05,-0.00010000000000021103,-9.99999999995449e-06,-0.0012269812703382676,0.0016936744856406172,0.00103795829758635
150000000000.0,-1,-0.065116156,0.16089770655,-0.05231847775,0.014803,0.013625,-0.017894,-0.0216726965,-9.7053473055,1.405489078,-3.1262,1.427,-1.207,9.999999999998899e-05,-0.0001500000000000945,1.999999999990898e-05,-0.0010578830913516857,0.0009932083297230498,0.0015119346519685273
150000000000.0,-1,-0.0389127872,0.17280297965,-0.03603943875,0.013501,0.016004,-0.017945,-0.020044792599999996,-9.705151172499999,1.407058142,-3.1273,1.4268,-1.2056,9.999999999998899e-05,-0.0001500000000000945,-0.00010999999999994348,0.0004595108687805993,-0.0010461760120847874,-0.0010012142913207178
150000000000.0,-1,-0.0060310897499999995,0.1502182647,-0.0326561445,0.001205,0.016798,-0.012107,-0.018966061099999997,-9.705151172499999,1.4069600754999998,-3.1281,1.4268,-1.2047,0.00029999999999996696,-9.999999999976694e-05,3.999999999992898e-05,0.0030841941819634844,-0.007721662088242542,0.0011378087260451863
150000000000.0,-1,0.0073157609,0.13671450764999998,-0.046022608449999995,-0.00724,0.012951,-0.016979,-0.0173381572,-9.705445372,1.4051948785,-3.1293,1.427,-1.2034,-0.00029999999999996696,-0.00019999999999997797,-7.999999999996898e-05,-0.004309715002495107,0.00873003214183754,-0.0012706682595591268
150000000000.0,-1,0.043345393,0.11833684554999999,-0.014288289049999998,-0.010999,0.015229,-0.013453,-0.01611232595,-9.705641505,1.4040180804999998,-3.1301,1.4271,-1.2024,9.999999999998899e-05,-0.0001500000000000945,-5.999999999994898e-05,-0.0018650787178424721,0.0007121507949126027,0.0014813282362444724
150000000000.0,-1,0.0419332354,0.11196252305,-0.01030678915,-0.013206,0.00789,-0.013272,-0.01485707475,-9.705837638,1.402547083,-3.131,1.4273,-1.2014,0.00019999999999997797,-0.0001500000000000945,-2.999999999997449e-05,0.003229188152883866,-0.0061037140978641435,-0.0011843233439727818
150000000000.0,-1,0.048052584999999995,0.0852590151,0.0004609125499999999,-0.003214,0.002156,-0.014259,-0.0134939504,-9.7059357045,1.401958684,-3.132,1.4273,-1.2004,1.999999999990898e-05,-9.999999999976694e-05,1.999999999990898e-05,-8.177710360190993e-05,-0.00037411925177499583,0.0003711221011504229
150000000000.0,-1,0.052171378,0.07491299935,-0.006452775699999999,0.002991,-5.7e-05,-0.01655,-0.011915079749999998,-9.705837638,1.4021548169999998,-3.1331,1.4273,-1.1992,2.0000000000131024e-05,-0.00010000000000021103,9.999999999998899e-05,-0.0010996117040584785,-0.0012853602972249245,0.0006288464362573798
150000000000.0,-1,0.058173047799999995,0.0557213853,-0.012425025549999998,0.012914,-0.003349,-0.021183,-0.009688970199999999,-9.705739571499999,1.4034296814999998,-3.1347,1.4272,-1.1976,1.999999999990898e-05,-9.999999999976694e-05,-9.99999999995449e-06,0.00013835982022047943,0.0004782199401149878,-9.77324026099069e-05
150000000000.0,-1,0.0430708068,0.07755098819999999,-0.03379371589999999,0.010652,-0.009479,-0.01872,-0.00775706015,-9.7055434385,1.4046064795,-3.1361,1.4271,-1.1963,2.0000000000131024e-05,-0.00019999999999997797,9.999999999998899e-05,-0.00014997312334474877,-0.0021086014541253917,0.0001443776907974481
150000000000.0,-1,0.05928119925,0.07521700549999999,-0.0361865385,0.003236,-0.00726,-0.022461,-0.0054132708,-9.705445372,1.4051948785,-3.1377,1.427,-1.1947,1.999999999990898e-05,-0.00019999999999997797,2.0000000000020002e-05,0.0007281221096016033,-0.0027660186325006997,-0.00020416798847122664
150000000000.0,-1,0.0320873588,0.0872595717,-0.05714334954999999,-0.005454,-0.003904,-0.021422,-0.0030596748,-9.7055434385,1.4048026124999997,-3.1394,1.4271,-1.1931,-9.999999999998899e-05,-0.00010000000000021103,4.0000000000040004e-05,-0.0019211552159503764,0.002599518192923256,0.0004635629751881254
150000000000.0,-1,0.02478140455,0.14091175385,-0.03727507665,-0.003054,-0.002658,-0.016595,-0.00099047165,-9.7055434385,1.4042142135,-3.1409,1.4271,-1.1916,-0.0012000000000000899,-0.0004999999999997229,-0.0010700000000000154,-0.021122622757079768,-0.001706452761820021,-0.06611214207686888
150000000000.0,-1,0.02478140455,0.14091175385,-0.03727507665,-0.003054,-0.002658,-0.016595,-0.00099047165,-9.7055434385,1.4042142135,-3.1409,1.4271,-1.1916,-9.999999999998899e-05,-0.00020000000000042206,4.999999999999449e-05,-0.0009500895286009836,8.217858253001253e-05,6.490637467937432e-05
150000000000.0,-1,-0.005727083599999999,0.15976013514999998,-0.0171027976,-0.001671,-0.007442,-0.017713,0.0006374322499999999,-9.7055434385,1.4042142135,3.1411,1.4271,-1.1905,0.001000000000000112,-0.0010999999999996568,0.0010999999999999899,0.05112216870615316,-0.012675254408005543,0.03864757139979513
150000000000.0,-1,0.025565936549999998,0.14887475365,-0.010679441849999999,0.011562,0.000194,-0.015237,0.00436395925,-9.7053473055,1.406077477,3.1385,1.4269,-1.1878,-0.0006666666666665932,-0.0009999999999998899,0.00010999999999994348,0.0014945119505254123,-0.00020534769163638167,-0.00027094114393433344
150000000000.0,-1,0.025595356499999996,0.1268392111,-0.0068254284,0.026673,-0.012674,-0.011242,0.007472667299999999,-9.704856973,1.4094117379999997,3.1363,1.4266,-1.1857,-0.0006666666666668153,-0.001000000000000334,0.0003300000000000525,0.003548976741198917,-0.0010789393849726103,-0.00012518108866510502
150000000000.0,-1,0.027605719749999997,0.13530235005,-0.00089240515,0.031841,-0.02098,-0.011056,0.010551955399999998,-9.7041705075,1.413922797,3.1341,1.4261,-1.1838,-0.0006666666666665932,-0.0009999999999998899,-0.0024899999999999922,-0.06265683260715305,0.011412763937756587,0.002357799319530063
150000000000.0,-1,0.029772989399999998,0.13879351745,-0.0317343194,0.028284,-0.024714,-0.011051,0.013925443,-9.7037782415,1.416668659,3.1318,1.4258,-1.1817,0.0020000000000000018,0.0028999999999999027,0.0023699999999999832,0.06368901187183118,-0.011970355699326696,-0.0023841749450324023
150000000000.0,-1,0.062370294,0.1379403389,-0.05065134725,0.017461,-0.031068,-0.013514,0.019181807399999997,-9.703680175,1.417257058,3.1281,1.4258,-1.1783,-9.999999999998899e-05,-9.999999999976694e-05,9.00000000000345e-05,0.000781623045685631,-0.00021128329333186535,-0.0003024162842666378
150000000000.0,-1,0.07179448465,0.12508382075,-0.0473268929,0.009091,-0.03734,-0.017148,0.0253207703,-9.703680175,1.417060925,3.1237,1.4258,-1.1744,-9.999999999998899e-05,-0.00010000000000021103,4.999999999999449e-05,0.0014897631844603687,-0.000156377842198685,-0.0004534750216733663
150000000000.0,-1,0.056466690699999995,0.12815330219999999,-0.06112484945,0.003032,-0.039984,-0.011177,0.027174227149999997,-9.7035821085,1.4175512575,3.1224,1.4257,-1.1735,-9.999999999998899e-05,-0.00039999999999995595,-8.000000000008001e-05,-0.004693758183131003,-0.00015827807635870883,-8.22920234364588e-05
150000000000.0,-1,0.07012735415,0.12802581575,-0.07140221865,-0.000524,-0.04244,-0.023116,0.029831829299999998,-9.703680175,1.4173551244999998,3.1205,1.4257,-1.172,-0.00019999999999997797,-0.00019999999999997797,1.0000000000065512e-05,-0.00023677660719290117,0.00015800113868547072,-0.0005684214214891625
150000000000.0,-1,0.06759723845,0.09548735105,-0.02982202265,0.000392,-0.032741,-0.023242,0.0364022848,-9.703680175,1.416668659,3.1159,1.4258,-1.1678,-5.0000000000105516e-05,-4.999999999988347e-05,-1.0000000000065512e-05,0.0019957606677647455,-0.000749698163205581,-0.0005863654169755428
150000000000.0,-1,0.07508951905,0.0820620472,-0.02138830365,-0.000725,-0.036428,-0.019596,0.04298254694999999,-9.7037782415,1.4161783265,3.1113,1.4258,-1.1635,-4.999999999988347e-05,-5.000000000032756e-05,9.00000000000345e-05,0.001628911822598944,0.00013390090695586387,-0.0009426778525449819
150000000000.0,-1,0.05000410835,0.0644689171,-0.026007235799999997,0.001727,-0.036345,-0.020767,0.04830755789999999,-9.703876307999998,1.4155899275,3.1075,1.4259,-1.1601,-5.0000000000105516e-05,0.00010000000000021103,1.0000000000065512e-05,0.002910265341647733,-0.0005084834023856288,-0.0004612160482548866
150000000000.0,-1,0.00758054045,0.04872924385,-0.031116500449999997,0.001757,-0.037579,-0.01714,0.0510730332,-9.7039743745,1.4147073289999998,3.1055,1.4259,-1.1585,-5.0000000000105516e-05,-0.000300000000000189,-0.000260000000000038,-0.003029879408181557,0.0002488383728957988,-2.4769069775665287e-05
150000000000.0,-1,-0.033891782399999994,0.0478956786,-0.09682105545,0.005657,-0.044732,-0.01458,0.05184775855,-9.704464707,1.4110788684999997,3.1049,1.4263,-1.1583,-9.999999999998899e-05,-0.00019999999999997797,-0.00012999999999996348,-0.00251313210985904,1.2751439406377685e-05,0.00021883846927517325
150000000000.0,-1,-0.033891782399999994,0.0478956786,-0.09682105545,0.005657,-0.044732,-0.01458,0.05184775855,-9.704464707,1.4110788684999997,3.1049,1.4263,-1.1583,-0.00019999999999997797,-0.00019999999999997797,0.0005299999999999194,0.0017535874188978617,-0.0017772288571824557,0.00021988349809598517
150000000000.0,-1,-0.039971905399999993,0.0654299688,-0.10488212174999999,0.007959,-0.0398,-0.018228,0.05269113045,-9.7049550395,1.4077446075,3.1042,1.4266,-1.1581,-0.00019999999999997797,-0.0002999999999997449,-0.00044999999999995044,-0.0038242585243879468,0.0006585582156690695,-0.0003150560875613273
150000000000.0,-1,-0.026713314599999996,0.0827288994,-0.12479942789999998,0.012697,-0.034839,-0.015828,0.0549956932,-9.704758906499999,1.4091175385,3.1026,1.4265,-1.1568,-0.00019999999999997797,-0.000300000000000189,7.00000000000145e-05,-7.810315538026025e-05,-0.0007859873851028265,-0.0003976423912788185
150000000000.0,-1,-0.038442067999999996,0.12322055724999999,-0.12877112115,0.009042,-0.034888,-0.024299,0.0565451439,-9.705249238999999,1.405292945,3.1014,1.4269,-1.156,-0.0020999999999999908,-0.0030000000000001137,-0.002670000000000061,-0.061439805341402254,0.013489199319655532,0.0013720590813512956
150000000000.0,-1,-0.0342055952,0.1498063854,-0.12287732449999998,0.011508,-0.036092,-0.014623,0.057545422199999995,-9.705641505,1.402547083,3.1006,1.4272,-1.1555,0.0007999999999999119,0.0035000000000002807,0.0010000000000000009,0.007120339619748339,0.0011767374625584193,-0.041966593833846044
150000000000.0,-1,-0.030753654399999997,0.16716415589999997,-0.12614293894999998,0.008292,-0.050714,-0.012054,0.05842802069999999,-9.7061318375,1.399408955,3.0999,1.4275,-1.1553,0.0002500000000000835,9.999999999976694e-05,0.0006500000000000394,0.0010302846914529429,-0.00048528734371866555,-0.0028761811695416917
150000000000.0,-1,0.0177892631,0.1755586483,-0.10005724995,0.017195,-0.061377,-0.004565,0.06077181005,-9.7063279705,1.3981340905,3.0982,1.4276,-1.1542,0.0002500000000000835,-0.0015000000000000568,0.0006500000000000394,0.04957744296987876,-0.013219106831004357,0.042070446055078925
150000000000.0,-1,0.0424235679,0.1601818211,-0.11162909695,0.016276,-0.071085,-0.003237,0.06396877795,-9.706426037,1.3967611595,3.0958,1.4277,-1.1526,-0.00019999999999997797,-0.00019999999999997797,-0.00029000000000001247,-0.0008302453100106355,0.0008321940224818025,-0.0009382080144426652
150000000000.0,-1,0.0301848687,0.14656038424999998,-0.11923905734999998,0.008063,-0.082178,-0.008004,0.06573397495,-9.7063279705,1.3977418244999997,3.0946,1.4276,-1.1522,-0.0019000000000000128,-0.0026999999999999247,-0.0019900000000000473,-0.0502084916669614,0.009401811112640157,-0.0006824677541903412
150000000000.0,-1,0.047934905199999996,0.11011887285,-0.10474482864999998,0.003203,-0.083534,-0.00805,0.06789143795,-9.706229903999999,1.398232157,3.0931,1.4276,-1.1516,-9.999999999998899e-05,-0.0002999999999997449,-0.00048000000000003595,-0.0026547136425396634,0.00016562924946450508,-0.0003414253491285102
150000000000.0,-1,0.0841214437,0.09545793109999999,-0.10115559475,-4.5e-05,-0.096931,-0.007905,0.07030387384999999,-9.706229903999999,1.3980360239999998,3.0913,1.4276,-1.1509,0.00019999999999997797,0.0030999999999998806,0.0013100000000000334,0.0001930628158695047,0.0011592856521862593,-0.03889544311923521
150000000000.0,-1,0.08118925534999999,0.04839581775,-0.08668097934999999,-0.005811,-0.10803,-0.005318,0.0760799907,-9.706720236499999,1.394113364,3.0871,1.4279,-1.1477,-0.00039999999999995595,-0.00019999999999997797,2.0000000000020002e-05,-0.0008996835564742955,0.0007107700028856634,-0.0011935343457358805
150000000000.0,-1,0.10349938409999998,0.05023946795,-0.1047938619,-0.008047,-0.11541,0.003177,0.08189533415,-9.707406702,1.3893081054999998,3.0827,1.4284,-1.1446,-0.000300000000000189,-0.000300000000000189,-0.00021000000000004349,0.0018220914078266315,8.51361301084097e-05,0.0009446219438991044
150000000000.0,-1,0.1394897896,0.08622987345,-0.1585146906,-0.003968,-0.12865,0.011841,0.08271909274999999,-9.7075047685,1.3887197065,3.0821,1.4285,-1.1453,-0.00039999999999995595,-0.0002999999999997449,-1.999999999990898e-05,0.0010813820470738644,0.000406572647186465,-0.0011359783354274455
150000000000.0,-1,0.15711233965,0.07681548945,-0.15289548014999998,-0.009612,-0.14461,0.022818,0.08274851269999998,-9.707602835,1.3875429085,3.082,1.4286,-1.1468,-0.0004999999999999449,-0.000300000000000189,0.00022999999999995246,-0.0014442397542893115,-0.00041950841935300964,-0.0012265359370005058
150000000000.0,-1,0.1348022109,0.09780172044999999,-0.1484530677,-0.011735,-0.15563,0.03257,0.08202282059999999,-9.707798968,1.3862680440000001,3.0825,1.4287,-1.1489,0.0005999999999999339,-0.0011999999999998678,0.0011700000000000044,0.049487476745736725,-0.013598398599991679,0.03539313468404437
150000000000.0,-1,0.1348022109,0.09780172044999999,-0.1484530677,-0.011735,-0.15563,0.03257,0.08202282059999999,-9.707798968,1.3862680440000001,3.0825,1.4287,-1.1489,-0.0004999999999999449,-0.000300000000000189,-7.00000000000145e-05,0.0008071925453700945,-0.0002043516487406638,-0.001638097998012178
150000000000.0,-1,0.1437262624,0.0783747468,-0.15174810209999998,-0.021108,-0.17055,0.050702,0.07954173815,-9.708191234,1.3841105809999998,3.0842,1.4289,-1.1524,-0.00039999999999995595,-0.0002999999999997449,9.00000000000345e-05,-0.0008199920790463722,-0.00043175416772145425,-0.0012422336126416411
150000000000.0,-1,0.1868559091,0.08762241775,-0.1412942132,-0.025672,-0.18161,0.056812,0.0763545769,-9.7085835,1.381364719,3.0864,1.4293,-1.1566,-0.0004999999999999449,-0.00019999999999997797,-8.000000000008001e-05,0.0019081528959845606,0.0008442436622604355,-0.0022139216551466667
150000000000.0,-1,0.197898197,0.1035974506,-0.1685370869,-0.011846,-0.19204,0.053536,0.07354987499999999,-9.708877699499999,1.3796975885,3.0883,1.4294,-1.1606,-0.000600000000000156,-0.000300000000000189,-0.00027999999999994696,-0.0013082485315087933,0.0010296030378103005,-0.0018408573387067584
150000000000.0,-1,0.13787169235,0.1715771484,-0.20064405899999999,0.012718,-0.19373,0.055093,0.07820803374999999,-9.7100544975,1.3706754705,3.0846,1.4303,-1.159,-0.0005999999999999339,-0.000300000000000189,0.00024999999999997247,0.0016773538510015396,-0.0004113033994075366,-0.0011399880061992995
150000000000.0,-1,0.1490218534,0.1902882366,-0.2598958383,0.035947,-0.19181,0.054174,0.08291522575,-9.711329362,1.3618494854999998,3.0808,1.4312,-1.1574,-0.0006999999999999229,-0.00039999999999995595,0.00021000000000004349,-0.0007554599875128076,-0.002147466475195481,-0.0015348393720469033
150000000000.0,-1,0.08561205449999999,0.18011874055,-0.3258553662,0.051939,-0.19375,0.05562,0.0842195102,-9.7126042265,1.3520428354999998,3.0794,1.4322,-1.1581,-0.000600000000000156,-0.0005999999999999339,-0.0003500000000000725,-0.0030043737668488113,0.0019294205213171711,-0.0024635484184938328
150000000000.0,-1,0.013474337099999999,0.16066234695,-0.34080070079999997,0.05931,-0.19344,0.043683,0.08288580579999999,-9.713879090999999,1.34351105,3.08,1.4331,-1.1608,-0.0005999999999999339,-0.0002999999999997449,5.0000000000105516e-05,0.00392616051034933,-0.0006783081949832681,-0.0023190928778995534
150000000000.0,-1,-0.056241137749999996,0.1582989443,-0.35381412534999995,0.063955,-0.18478,0.035202,0.07899256575,-9.715055888999999,1.334881198,3.0825,1.434,-1.1653,-0.0006999999999999229,-0.0005999999999999339,-9.00000000000345e-05,-0.0014114817616859288,5.453221513707085e-05,-0.0013985787534251948
150000000000.0,-1,-0.1262704254,0.15354271905,-0.32184444635,0.065018,-0.17993,0.037554,0.07195139105,-9.716036553999999,1.3285068755,3.0875,1.4347,-1.1723,-0.0017000000000000348,0.0006999999999997009,-0.0010900000000000354,-0.05161591338572635,0.013044194437311418,-0.04347363730904874
150000000000.0,-1,-0.1574751857,0.17645105344999998,-0.33761353954999995,0.076762,-0.16252,0.01942,0.0718827445,-9.714957822499999,1.3359599294999998,3.0878,1.4339,-1.1744,-0.0008000000000001339,-0.0006999999999997009,-0.00017000000000000348,-0.001195002729611705,0.0010127662426602235,6.100457010349558e-05
150000000000.0,-1,-0.21603069284999998,0.17009634424999998,-0.36642547725,0.094703,-0.14869,0.020669,0.07193177775,-9.713682958,1.3451781804999998,3.0882,1.433,-1.1764,-0.0005999999999999339,-0.000800000000000356,-0.00019000000000002348,-0.0007556720180641463,-0.0005299480641804966,-0.0015786766404586317
150000000000.0,-1,-0.22503319754999998,0.19085702229999998,-0.34767516244999996,0.11148,-0.1361,0.018424,0.07210829745,-9.712113894,1.3562596949999999,3.0885,1.4319,-1.1782,-0.0007999999999999119,-0.0006999999999997009,-7.999999999996898e-05,-0.00019474143637321362,0.0007902814212752407,-0.0013545772162046887
150000000000.0,-1,-0.26995746119999997,0.16737009555,-0.32631627874999997,0.12812,-0.11989,0.019622,0.07198081099999999,-9.710348696999999,1.36900834,3.0891,1.4305,-1.1801,-0.00039999999999995595,-0.000700000000000145,-0.00031000000000003247,-0.0007171342376213197,-0.0009128198092245299,-0.002908464846162584
150000000000.0,-1,-0.2566204172,0.14916895315,-0.3234821569,0.14228,-0.10251,0.015958,0.07182390459999999,-9.708289300499999,1.383326049,3.0897,1.4291,-1.182,-0.0015000000000000568,-0.0017000000000000348,-0.00021999999999999797,-0.002554332451877084,0.0008776578597786688,-0.0023279648412555254
150000000000.0,-1,-0.29705323515,0.14056852109999998,-0.29321883499999996,0.14927,-0.09145,0.020709,0.07095111275,-9.7061318375,1.3986244229999998,3.0909,1.4275,-1.1842,-0.0003500000000000725,-0.0005500000000000504,-0.00012500000000004174,-0.0010736484624889187,0.00010849153803960121,-9.236828307290779e-05
150000000000.0,-1,-0.29705323515,0.14056852109999998,-0.29321883499999996,0.14927,-0.09145,0.020709,0.07095111275,-9.7061318375,1.3986244229999998,3.0909,1.4275,-1.1842,-0.0003500000000000725,-0.0005500000000000504,-0.00012499999999993072,-0.001073646855911381,0.00010839256164096867,-9.248416635232459e-05
150000000000.0,-1,-0.29416027339999995,0.15407227815,-0.28789382404999997,0.15596,-0.070696,0.020507,0.0530932031,-9.706033771,1.400193487,3.1037,1.4274,-1.1977,9.999999999998899e-05,-0.0020999999999999908,0.0012800000000000589,0.04926932987404142,-0.013775269406225643,0.03906801565027074
150000000000.0,-1,-0.24694125364999997,0.1289770608,-0.29281676235,0.16815,-0.067831,0.009804,0.03909911355,-9.705641505,1.4034296814999998,3.1137,1.4271,-1.2084,-0.0005999999999999339,-0.0008999999999996788,-0.00036000000000002697,0.0006247043159510746,0.00041754574201990913,-0.0004392092217155863
150000000000.0,-1,-0.19086682895,0.10409758974999998,-0.3135578271,0.18291,-0.068507,-0.002018,0.030155448749999997,-9.7049550395,1.408038807,3.1202,1.4267,-1.2154,-0.0006999999999999229,-0.001200000000000312,-0.00021000000000004349,-0.002765869689474121,0.00013319586183802024,-0.001004155085876146
150000000000.0,-1,-0.15335639269999998,0.10611775965,-0.32592401275,0.19081,-0.085149,-0.007691,0.024369525249999996,-9.704366640499998,1.4127459989999998,3.1243,1.4262,-1.2204,-0.0018000000000000238,0.00010000000000021103,-0.0011799999999999589,-0.05320283381846269,0.012994193763838036,-0.041965956962644047
150000000000.0,-1,-0.0817482344,0.11735618055,-0.30566347385,0.19501,-0.10196,-0.006194,0.0226337482,-9.703287909,1.4199048534999998,3.1256,1.4255,-1.2227,-0.001000000000000112,-0.0015000000000000568,-0.00040000000000006697,-0.002049616793924569,0.0013463358663194924,0.003885010831946367
150000000000.0,-1,-0.01697531115,0.13473356434999997,-0.3159114231,0.18315,-0.11442,-0.003771,0.0244577851,-9.702307244,1.4268675749999997,3.1245,1.4248,-1.2227,0.00020000000000020002,-0.002200000000000202,0.0011900000000000244,0.04872650963243541,-0.0154004497563196,0.03695363400868157
150000000000.0,-1,0.0554860257,0.17428378379999998,-0.38468545954999994,0.17005,-0.12696,0.003448,0.026370081849999998,-9.699561381999999,1.444715678,3.1233,1.4229,-1.2229,-0.0009000000000001229,-0.0011999999999998678,0.00045000000000006146,0.0020007274272411113,-0.002340747126913456,-0.0013554132091759818
150000000000.0,-1,0.09529121804999999,0.198878862,-0.3982676698,0.15926,-0.13586,0.019069,0.026968287499999997,-9.697109719499998,1.4612889165,3.1231,1.4212,-1.2242,-0.0007999999999999119,-0.0013000000000000789,-0.0008600000000000829,-0.004348840269730925,0.0019091453419963766,-0.0012360374683662023
150000000000.0,-1,0.1298204327,0.18290382915,-0.39192276724999997,0.15971,-0.15041,0.026499,0.026693701299999997,-9.694658057,1.477862155,3.1235,1.4195,-1.2261,-0.0020999999999999908,-0.00039999999999995595,-0.0015099999999999003,-0.05359542884282287,0.013560415146689708,-0.038773727881954656
150000000000.0,-1,0.16099577305,0.14614850494999998,-0.35543222259999996,0.16992,-0.16476,0.048496,0.024712757999999998,-9.6920102615,1.495121859,3.1251,1.4177,-1.2294,-0.001000000000000112,-0.0013999999999998458,-0.00029000000000001247,-0.0017734625100673806,0.00014820250992242379,-0.00030085368878518537
150000000000.0,-1,0.15983858835,0.09815475985,-0.35740335924999994,0.17878,-0.17423,0.058374,0.0216726965,-9.689166333,1.5131660949999999,3.1273,1.4159,-1.2335,-0.0005999999999999339,-0.0007999999999999119,0.00029000000000001247,-0.000590710209145362,-0.00429537080491782,-0.00852516140006676
150000000000.0,-1,0.18033448684999998,-0.00601147645,-0.32551213344999996,0.18876,-0.18,0.062198,0.028713871199999998,-9.6888721335,1.515127425,3.1226,1.4156,-1.2309,-0.001100000000000101,-0.00140000000000029,-0.00048000000000003595,-0.0005240296156669988,0.002009850371138544,-0.0016329962659553665
150000000000.0,-1,0.1876404411,0.014356935599999999,-0.32209941924999996,0.19661,-0.19552,0.065037,0.03501954715,-9.6880876015,1.5196384839999997,3.1186,1.4152,-1.229,-0.0018000000000000238,-0.0020999999999999908,-0.0004899999999999904,-0.0037788968739618234,0.003638362357571312,0.007092879536795049
150000000000.0,-1,0.2031349481,0.02346731345,-0.38122371209999995,0.21207,-0.21926,0.070392,0.04182536225,-9.6874992025,1.5234630774999998,3.1141,1.4148,-1.227,-0.0021999999999999797,-0.0026999999999999247,-0.00026999999999999247,-0.0047185904907913745,-0.003075332560341426,-0.009051714666565847
150000000000.0,-1,0.2031349481,0.02346731345,-0.38122371209999995,0.21207,-0.21926,0.070392,0.04182536225,-9.6874992025,1.5234630774999998,3.1141,1.4148,-1.227,-0.0017000000000000348,-0.0017000000000000348,-8.000000000008001e-05,-0.002247101754913494,0.0014612292455766784,0.0011964880233783504
150000000000.0,-1,0.27534131205,0.031773546,-0.4444766046,0.22251,-0.23954,0.076833,0.051769305349999996,-9.6871069365,1.5254244074999999,3.1077,1.4145,-1.2232,-0.0015999999999998238,-0.0017999999999998018,-0.0007999999999999119,-0.0028963565245465617,0.00268393407101164,0.0014413837114304329
150000000000.0,-1,0.324011716,0.11080533834999999,-0.47924117885,0.23287,-0.25738,0.079629,0.06325289249999999,-9.686616604,1.5286606019999998,3.1002,1.4141,-1.2187,-0.0014000000000000679,-0.00140000000000029,-0.0003700000000000925,-0.0022211648161047925,0.0006586924953910778,-0.005424636500839686
150000000000.0,-1,0.3675140154,0.15285625355,-0.4216271100999999,0.25266,-0.2628,0.076361,0.07675664955,-9.68504754,1.5374865869999998,3.0917,1.4132,-1.2132,-0.0015000000000000568,-0.0015999999999998238,-0.00010999999999994348,-0.0024365871202487455,-0.00298650365523212,-0.004153940604895823
150000000000.0,-1,0.39489418219999994,0.23036801515,-0.46596297475,0.26782,-0.27687,0.07917,0.07303012254999999,-9.680732614,1.564749074,3.095,1.4104,-1.2194,-0.0016999999999998128,-0.0016499999999997073,-0.00026999999999999247,-0.0028871177022660177,-0.00044284578409192754,-0.004279075735669657
150000000000.0,-1,0.39564929424999995,0.22817132554999997,-0.50479730875,0.29241,-0.27978,0.083152,0.0692741756,-9.676025421999999,1.5939728909999997,3.0982,1.4074,-1.2257,-0.0017000000000000348,-0.0016500000000001513,-0.00026999999999999247,-0.002885311152021508,-0.00045514547482428114,-0.004277955848992043
150000000000.0,-1,0.39276613915,0.2247095781,-0.5287843746499999,0.31673,-0.27426,0.09062,0.06483176315,-9.670729831,1.625746437,3.1017,1.4041,-1.2323,-0.0020500000000001073,-0.0019500000000003403,-0.0003750000000000142,-0.0028469408537814545,0.00119748351633997,-0.0005326831347094441
150000000000.0,-1,0.37453557679999994,0.19690772534999998,-0.56326455605,0.35068,-0.26367,0.10657,0.059114486200000003,-9.6647477745,1.661050377,3.106,1.4005,-1.2395,-0.0020499999999998852,-0.0019499999999998963,-0.0003750000000000142,-0.0028472849226426344,0.0011959709746880431,-0.0005360480234353204
150000000000.0,-1,0.36924979244999995,0.19025881665,-0.54727971655,0.38104,-0.25556,0.11529,0.051985051649999996,-9.658177318999998,1.699492445,3.111,1.3965,-1.2474,-0.0020499999999998852,-0.0018500000000001293,-0.00029999999999996696,-0.003991388106223237,-5.78687152668067e-05,-0.003338519439511245
150000000000.0,-1,0.342252085,0.16179991835,-0.49587325725,0.40408,-0.24893,0.13114,0.060418770649999995,-9.654352725499999,1.720478676,3.1065,1.3943,-1.2458,-0.0020500000000001073,-0.0018499999999996852,-0.000300000000000078,-0.003991157824866587,-7.114094195181941e-05,-0.0033382491865214803
150000000000.0,-1,0.34020249514999995,0.1446873141,-0.4999037904,0.40956,-0.26823,0.14833,0.050504247499999995,-9.646801605,1.7625492045,3.1129,1.39,-1.2552,-0.0024000000000001798,-0.002200000000000202,-0.0005999999999999339,-0.005301444285262802,0.001297612851747898,0.00041687670422385636
150000000000.0,-1,0.35092116360000003,0.1316640829,-0.47553426514999997,0.40309,-0.29761,0.17152,0.038883367249999995,-9.639152418,1.8041294005,3.12,1.3857,-1.2656,-0.0020999999999999908,-0.0017000000000000348,-0.00017000000000000348,-0.001272479258750181,-0.0013959642956644647,-0.006457502080764677
150000000000.0,-1,0.3278166962,0.11546349709999999,-0.476014791,0.40487,-0.31576,0.18142,0.026674088000000002,-9.631405164499999,1.84561153,3.1271,1.3814,-1.2762,-0.0024500000000000632,-0.0019999999999997797,-0.0003849999999999687,-0.004956916340941753,0.0006900494439523452,-0.003205504097006262
