Time,placement_label,user_acc_x(m/s^2),user_acc_y(m/s^2),user_acc_z(m/s^2),rotation_rate_x(rad/s),rotation_rate_y(rad/s),rotation_rate_z(rad/s),gravity_x(m/s^2),gravity_y(m/s^2),gravity_z(m/s^2),attitude_roll(rad),attitude_pitch(rad),attitude_yaw(rad),target_delta_x,target_delta_y,target_delta_z,target_delta_roll,target_delta_pitch,target_delta_yaw
1504196532.4,-1.0,0.022359162,0.01003220295,0.060193217699999996,0.009734,-0.03427,-0.050992,0.027321326899999998,-3.5518019169499997,-9.14080788495,0.002989,0.370609,1.527881,0.0,0.0,0.0,0.0,0.0,0.0
1504196532.41,-1.0,0.0393050532,0.0255169033,0.02666428135,0.014041,-0.030041,-0.05206,0.0269879008,-3.5526158688999994,-9.1404842655,0.002953,0.370698,1.527295,-3.0000000000002247e-05,-0.00014799999999999536,7.999999999999327e-06,0.0003019817093750099,2.24897287042225e-05,-0.00013503941798997943
1504196532.42,-1.0,0.03180296595,0.03866762095,0.038442067999999996,0.024804,-0.01628,-0.048864,0.027448813349999997,-3.5542535794499996,-9.1398566399,0.003003,0.370877,1.526748,-9.999999999996123e-06,-3.200000000000425e-05,4.499999999999296e-06,7.992265326683956e-05,1.849056403280258e-05,-4.5923769806610615e-05
1504196532.43,-1.0,0.017897136249999997,0.06493963629999999,0.0883579165,0.034415,-0.011037,-0.042452,0.028184312099999997,-3.5567346618999998,-9.13888578155,0.003084,0.371148,1.526261,-9.999999999996123e-06,-3.199999999999731e-05,4.500000000001031e-06,7.992250986532667e-05,1.8494408332792034e-05,-4.592269665915083e-05
1504196532.44,-1.0,0.0170243444,0.06897997609999999,0.11827800565,0.030146,-0.00781,-0.037128,0.0290669106,-3.5594314906499998,-9.13783647,0.003181,0.371443,1.525831,-2.0000000000006124e-05,-6.400000000000156e-05,9.000000000000327e-06,0.00012381216182055788,2.177845513617882e-05,-6.816246514040891e-05
1504196532.45,-1.0,0.0208685512,0.033440676499999995,0.1062648594,0.016296,-0.003437,-0.033958,0.030312355149999998,-3.56145166055,-9.137042131349999,0.003317,0.371665,1.525445,-1.9999999999992246e-05,-6.899999999999962e-05,9.999999999999593e-06,0.00017418305857175298,4.093202061494772e-05,-5.964934711200076e-05
1504196532.46,-1.0,0.05681973009999999,-0.00869849855,0.12039624204999999,-0.004011,-0.008595,-0.035052,0.0319108391,-3.5624029055999995,-9.13666947865,0.003493,0.371769,1.525046,-3.0000000000002247e-05,-7.100000000000162e-05,-2.999999999999531e-06,0.00023823833063052469,6.595125243924471e-06,-4.507574510193013e-05
1504196532.47,-1.0,0.07156893169999999,-0.039089306899999995,0.13000675904999998,-0.02318,-0.008429,-0.041491,0.0337741026,-3.56194199305,-9.1368361917,0.003696,0.371718,1.524568,-2.0000000000006124e-05,-0.00016499999999999848,-8.000000000001062e-06,0.0007614407388676359,2.8763205655257806e-05,-1.4983335665297304e-05
1504196532.48,-1.0,0.08566108774999999,-0.04531652965,0.1093637608,-0.033743,0.001256,-0.046864,0.036745517549999995,-3.56035331575,-9.137444204,0.004021,0.371544,1.524017,-9.999999999996123e-06,-8.79999999999978e-05,-2.999999999999531e-06,0.0004689274522431397,3.790442270434902e-05,3.197522807518727e-05
1504196532.49,-1.0,0.07952212485,-0.05215176469999999,0.12186723954999999,-0.041103,0.015171,-0.045835,0.04094276375,-3.5581566261499997,-9.1382875759,0.00448,0.371304,1.523458,-2.000000000002e-06,-4.499999999999643e-05,-1.4999999999997654e-06,0.0002295724620879902,2.8244877704697302e-05,7.78619320995766e-06
1504196532.5,-1.0,0.06377264495,-0.042727574049999995,0.11837607215,-0.036726,0.033244,-0.038388,0.0462089348,-3.5559109032999996,-9.1391309478,0.005056,0.371058,1.522967,-2.000000000002e-06,-4.500000000000337e-05,-1.4999999999997654e-06,0.0002295724813903277,2.8243096989566396e-05,7.79267529804617e-06
1504196532.51,-1.0,0.03131263345,-0.0293611101,0.08487655574999999,-0.031379,0.043841,-0.023455,0.05159278565,-3.55386131345,-9.1398958665,0.005644,0.370834,1.522646,-1.9999999999881224e-06,-0.0001799999999999996,-1.3000000000000858e-05,0.0008882899821618384,9.236658231603911e-06,-6.315808733137196e-05
1504196532.52,-1.0,-0.0013631243499999997,-0.031616639599999996,0.11135451075,-0.033596,0.038523,-0.01491,0.0558390651,-3.5519097901,-9.14063136525,0.006108,0.370621,1.522474,-2.000000000002e-06,-4.300000000000137e-05,-5.999999999999062e-06,0.00018696418761732225,-1.6366885726926128e-05,-2.487812749996099e-05
1504196532.53,-1.0,-0.0087671451,-0.0391677601,0.10831444924999999,-0.031561,0.024655,-0.017017,0.05904583965,-3.5500465265999996,-9.14133744405,0.006459,0.370416,1.522314,-2.000000000002e-06,-4.300000000000137e-05,-6.000000000000796e-06,0.0001869639313460958,-1.636216915423816e-05,-2.4881101047480314e-05
1504196532.54,-1.0,0.015102240999999999,-0.021201977299999997,0.060624710299999995,-0.027342,0.009717,-0.03086,0.06150730879999999,-3.5479577101499995,-9.1421317827,0.006728,0.370188,1.522007,-7.500000000007501e-06,-8.199999999999874e-05,-1.4000000000000123e-05,0.0003179150742944614,-2.3412826100521755e-05,-5.498806875214868e-05
1504196532.55,-1.0,0.03870684755,-0.0270467407,0.07891411255,-0.025284,-0.005209,-0.03937,0.06334115235,-3.54629057965,-9.142769214949999,0.006928,0.370006,1.521581,-7.499999999993623e-06,-0.0001490000000000033,-2.8999999999999512e-05,0.000498404577651268,-1.3848010143258094e-05,-0.00011237258417662321
1504196532.56,-1.0,0.0385401345,-0.0166320784,0.08317019865,-0.014638,-0.011683,-0.044677,0.06455717695,-3.5453393346,-9.143132061,0.007061,0.369902,1.521087,-7.499999999993623e-06,-6.149999999999906e-05,-7.500000000000562e-06,0.00028431690902319673,-1.3755839731066644e-05,-5.1848718710334474e-05
1504196532.57,-1.0,0.018966061099999997,-0.01032640245,0.06704806605,-0.010345,-0.00533,-0.039345,0.0661752742,-3.54521184815,-9.143161480949999,0.007238,0.369888,1.520612,-7.500000000007501e-06,-6.149999999999906e-05,-7.499999999998827e-06,0.00028431928462024914,-1.3741181721371731e-05,-5.1852933730556217e-05
1504196532.58,-1.0,0.017955976149999997,-0.01144436055,0.067469752,-0.014614,0.001088,-0.028689,0.0671951658,-3.54409389005,-9.14359297355,0.007348,0.369766,1.520277,-9.999999999996123e-06,-5.8999999999996555e-05,-5.000000000001531e-06,0.0003625515897671683,2.9485820468577728e-05,-4.6252915441025166e-05
1504196532.59,-1.0,0.0014513841999999999,-0.02495792425,0.06710690595,-0.026319,0.007574,-0.024451,0.0687250032,-3.54270134575,-9.14412253265,0.007516,0.369613,1.520008,-1.0000000000010001e-05,-3.0500000000002747e-05,-2.999999999999531e-06,0.00020858973405069037,5.749137358623813e-06,-6.563273264204028e-06
1504196532.6,-1.0,0.0066096821,-0.04951377585,0.05365218215,-0.040179,0.006626,-0.027676,0.0704509736,-3.5402987164999997,-9.145034551099998,0.007704,0.36935,1.519725,-9.999999999996123e-06,-3.0500000000002747e-05,-2.999999999999531e-06,0.00020859058755862137,5.750531092640898e-06,-6.562101045881619e-06
1504196532.61,-1.0,0.0023045627499999996,-0.05877125345,0.0684308037,-0.051914,0.002467,-0.034094,0.0720592642,-3.5368761956499997,-9.1463486422,0.007879,0.368976,1.519372,-3.999999999999837e-05,-0.0001239999999999991,-2.1000000000000185e-05,0.0008315086763541757,1.9064154031411817e-05,5.51776451787056e-05
1504196532.62,-1.0,0.02852754485,-0.06919572239999999,0.0897308475,-0.049898,-0.014595,-0.037263,0.07293205605,-3.53362038785,-9.14759408675,0.007972,0.368621,1.518962,-2.0000000000006124e-05,-6.300000000000056e-05,-1.4000000000000123e-05,0.0003881375072403159,1.6727845908670602e-05,4.2118787726419527e-05
1504196532.63,-1.0,0.02791953255,-0.06059529034999999,0.07009793419999999,-0.038266,-0.028542,-0.038286,0.0723338504,-3.53101181895,-9.14861397835,0.007907,0.368335,1.518536,-1.5000000000001124e-05,-6.550000000000306e-05,-8.499999999999827e-06,0.00031810065717952085,-2.177188915286621e-05,4.138214135795959e-05
1504196532.64,-1.0,0.01228773245,-0.03753004955,0.07834532685,-0.028819,-0.043546,-0.030771,0.070019481,-3.5290799089,-9.14937889705,0.007652,0.368124,1.518184,-1.5000000000001124e-05,-6.549999999999612e-05,-8.499999999999827e-06,0.0003180992203046795,-2.1784986828254915e-05,4.1375138845056725e-05
1504196532.65,-1.0,0.010904994799999998,-0.0235555733,0.0541719346,-0.019239,-0.040438,-0.021154,0.06720497245,-3.52779523775,-9.14988884285,0.007344,0.367984,1.517925,-1.9999999999992246e-05,-7.100000000000162e-05,-9.999999999992654e-07,0.0002136965489956122,-2.894099696137964e-05,5.378367489072833e-05
1504196532.66,-1.0,-0.0068842683,-0.0218688295,0.02021150565,-0.016983,-0.021282,-0.014779,0.0650965427,-3.52663805305,-9.150349755399999,0.007114,0.367858,1.517756,-9.999999999996123e-06,-7.599999999999274e-05,1.9999999999985307e-06,0.0002063833023462358,1.2446853867587038e-06,7.879100600594047e-05
1504196532.67,-1.0,-0.029468983249999997,-0.026036655749999995,0.027576299799999995,-0.026438,-0.000962,-0.011629,0.0644885304,-3.5250199558,-9.150977380999999,0.007047,0.36768,1.517648,4.000000000004e-06,-8.500000000000174e-05,3.500000000000031e-06,0.00023421540709445132,1.9823607328328663e-05,8.353067634581102e-05
1504196532.68,-1.0,-0.04361017255,-0.04033475145,0.0203193788,-0.043386,0.016223,-0.008486,0.065312289,-3.52208776745,-9.15210514575,0.007136,0.36736,1.517571,3.9999999999901226e-06,-8.500000000000174e-05,3.500000000000031e-06,0.00023421662940292798,1.9804035764625638e-05,8.353516574544084e-05
1504196532.69,-1.0,-0.03394081565,-0.04551266265,-0.02209438245,-0.050793,0.025871,-0.005313,0.06716574585,-3.5179591678,-9.1536840164,0.007337,0.366909,1.517528,4.000000000004e-06,-9.499999999999786e-05,-4.666666666666708e-06,0.000282039716867466,5.75401045477264e-06,8.382585008659404e-05
1504196532.7,-1.0,-0.0070019481,-0.053357982649999997,-0.0449340703,-0.047612,0.020473,-0.006333,0.06940166205,-3.5138599881,-9.1552334671,0.00758,0.366461,1.517473,3.9999999999901226e-06,-0.00010000000000000286,-4.666666666666708e-06,0.0003097185938840674,1.3788185404539632e-06,6.320458148523223e-05
1504196532.71,-1.0,0.0168478247,-0.058182854449999995,-0.009453610599999999,-0.040256,0.005496,-0.007361,0.0708432396,-3.5106728268499996,-9.1564494917,0.007737,0.366113,1.517391,4.000000000004e-06,-0.00010000000000000286,-4.666666666666708e-06,0.00030971622121978015,1.3592468670609037e-06,6.320450395103094e-05
1504196532.72,-1.0,0.04474774395,-0.042492214449999996,0.0047464186,-0.03608,-0.00945,-0.012665,0.07137279869999999,-3.50796619145,-9.15747918995,0.007794,0.365817,1.517246,-2.5000000000025002e-06,-8.750000000000424e-05,-8.499999999999827e-06,0.00030376043481972204,-2.3054502319874715e-05,7.578560719867511e-06
1504196532.73,-1.0,0.041531162749999996,-0.0394423463,-0.0089044382,-0.033998,-0.017988,-0.015849,0.071000146,-3.50531839595,-9.15849908155,0.007752,0.365529,1.517057,-2.5000000000025002e-06,-8.749999999999036e-05,-8.499999999999827e-06,0.0003037629039641665,-2.3056981686808697e-05,7.5716179435136866e-06
1504196532.74,-1.0,0.0381086419,-0.05282842355,-0.028762904449999998,-0.033951,-0.011595,-0.014793,0.0708236263,-3.5028667334499994,-9.15944051995,0.007732,0.365261,1.516883,-2.4999999999886224e-06,-3.649999999999487e-05,-2.0000000000002655e-06,0.00012787566995808852,-1.7325632019948856e-05,-2.7249101245074847e-05
1504196532.75,-1.0,0.008335652499999999,-0.0657633949,-0.029410143349999997,-0.038188,-0.007299,-0.013741,0.0706667199,-3.50025816455,-9.160440798249999,0.007714,0.364976,1.516733,-2.5000000000025002e-06,-3.650000000000875e-05,-2.0000000000002655e-06,0.00012787616141696212,-1.732214092697859e-05,-2.725132227365812e-05
1504196532.76,-1.0,-0.02501676415,-0.060860069899999994,-0.0469150136,-0.036028,-0.00412,-0.013743,0.07036271375,-3.4975221092,-9.16148030315,0.00768,0.364678,1.5166,3.333333333327415e-06,-8.099999999999774e-05,1.1000000000000593e-05,0.00020235185382211363,-1.565694195626577e-05,-4.9003609762232614e-05
1504196532.77,-1.0,-0.0023045627499999996,-0.04963145565,-0.07308896245,-0.025346,5e-05,-0.009462,0.07069613984999999,-3.4951292865999997,-9.1623923216,0.007715,0.364416,1.516491,3.333333333341293e-06,-7.999999999999674e-05,1.5000000000001124e-05,0.0001707913739437128,-2.2010364117308612e-05,-3.515452842306477e-05
1504196532.78,-1.0,-0.026654474699999996,-0.0302633219,-0.05282842355,0.000203,-0.004428,-0.00514,0.0701960007,-3.4945997275,-9.162598261249999,0.007661,0.364359,1.516443,3.333333333327415e-06,-0.00016800000000000148,3.799999999999984e-05,0.00028713539014368905,-2.958282987286509e-05,-0.00016478370934402964
1504196532.79,-1.0,-0.02205515585,-0.010198915999999999,-0.02489908435,0.031046,-0.015341,-0.002932,0.0687446165,-3.49670815725,-9.161803922599999,0.007503,0.364589,1.516425,5.0000000000050004e-06,-4.500000000000337e-05,8.999999999998592e-06,7.841722411949803e-05,1.5232291246336516e-05,-2.10630063238737e-05
1504196532.8,-1.0,-0.02778223945,0.0025105023999999997,-0.0023830159499999997,0.050109,-0.030421,0.001398,0.06579281484999999,-3.5008955967999995,-9.160234858599999,0.007182,0.365045,1.516439,4.999999999991123e-06,-4.500000000000337e-05,9.000000000000327e-06,7.841700113297989e-05,1.5233969731021091e-05,-2.1061837233604663e-05
1504196532.81,-1.0,-0.013023231199999999,0.0116306869,0.03447037475,0.054184,-0.0539,0.002514,0.0608992965,-3.5059754415,-9.15832256185,0.00665,0.3656,1.516474,2.0000000000006124e-05,-9.699999999999986e-05,1.4000000000000123e-05,0.00016355529425249316,6.342089690303254e-06,-4.080002919493175e-05
1504196532.82,-1.0,-0.0047856452,-0.06683231975,0.10703958474999999,0.048846,-0.065559,-0.014553,0.05535853925,-3.5130950694,-9.1556257331,0.006047,0.366378,1.516373,3.999999999999837e-05,-0.00021499999999999297,1.4000000000000123e-05,0.0004668587790987999,-1.9822985217299305e-05,-9.8597896246444e-05
1504196532.83,-1.0,-0.0017455836999999998,-0.06289004645,0.10554897395,0.042803,-0.039903,-0.045564,0.05231847775,-3.5170373427,-9.154125315649999,0.005716,0.366808,1.515974,3.0000000000002247e-05,-0.00011800000000000699,4.000000000000531e-06,0.0003133176246110647,6.636448089292202e-06,-7.879648871667033e-05
1504196532.84,-1.0,-0.036745517549999995,-0.10188128685,0.17256762005,0.044356,-0.003646,-0.084051,0.053063783149999995,-3.5236862514,-9.15156578,0.005798,0.367535,1.515202,3.499999999999337e-05,-0.0001229999999999981,1.0999999999998858e-05,0.0003466839428039048,-2.603834444858677e-05,-6.489898664241434e-05
1504196532.85,-1.0,-0.0989883251,-0.1052645811,0.23394744239999998,0.046808,0.015546,-0.116102,0.05633920425,-3.5309333657499997,-9.1487610781,0.006159,0.368326,1.514098,3.500000000000725e-05,-0.0001229999999999981,1.1000000000000593e-05,0.0003466846945365809,-2.6015763625597543e-05,-6.490784088164503e-05
1504196532.86,-1.0,-0.14542281285,-0.08291522575,0.24079248409999998,0.052201,0.01019,-0.135295,0.059977471399999996,-3.5383177732,-9.145877922999999,0.006558,0.369134,1.512767,3.0000000000002247e-05,-0.00011999999999999511,1.600000000000039e-05,0.00033735109302401867,-8.254304740829e-06,-3.027296491608933e-05
1504196532.87,-1.0,-0.14883552705,-0.04151154945,0.17042977034999998,0.055231,-0.013282,-0.13738,0.059349845799999995,-3.5476929305999994,-9.142249462499999,0.006492,0.37016,1.511475,3.0000000000002247e-05,-0.00011900000000000799,1.2999999999999123e-05,0.00027520923281887377,-1.9618905727769587e-05,-2.9718257130162407e-05
1504196532.88,-1.0,-0.14960044574999998,-0.0373437232,0.16880186644999998,0.042058,-0.051549,-0.124527,0.060114764499999994,-3.5518705635,-9.1406215586,0.006577,0.370616,1.510094,1.4999999999987246e-05,-0.00010249999999999149,1.849999999999942e-05,0.0001773221983660811,1.2907312896270895e-06,-2.3785219312011385e-05
1504196532.89,-1.0,-0.1480019618,-0.00522694445,0.11058959205,0.017224,-0.075877,-0.104245,0.05492704665,-3.5546556521,-9.13957224705,0.00601,0.370921,1.50902,1.5000000000001124e-05,-0.00010250000000000536,1.8500000000001154e-05,0.00017732140787329875,1.2949402299344825e-06,-2.3784887985600633e-05
1504196532.9,-1.0,-0.11698352784999999,0.024820631149999998,-0.00114737805,7.1e-05,-0.07682,-0.089327,0.048895956899999996,-3.5546262321499995,-9.1396212803,0.00535,0.370918,1.50811,-9.999999999996123e-06,-8.900000000000574e-05,2.3999999999999716e-05,7.697088297287102e-05,1.0761857943686337e-05,-5.925223933467283e-05
1504196532.91,-1.0,-0.11821916575,0.0283216052,-0.0067862018,-0.015891,-0.066044,-0.080833,0.04339442625,-3.5530375548499995,-9.140258712549999,0.004748,0.370744,1.507303,-9.999999999996123e-06,-9.299999999999586e-05,2.700000000000098e-05,9.967502348784407e-05,-1.1364638910826841e-05,-4.737756861117326e-05
1504196532.92,-1.0,-0.026791767799999998,0.0664694737,0.0661948875,-0.025488,-0.058519,-0.070188,0.03861858769999999,-3.5497327138,-9.14157280365,0.004224,0.370382,1.506598,-9.999999999996123e-06,-0.00010649999999999549,2.650000000000048e-05,0.00016305466056065754,-5.0790010188928036e-05,-6.732208981341525e-05
1504196532.93,-1.0,-0.0233006004,0.0634686388,0.0673716855,-0.034128,-0.064853,-0.059518,0.0351274203,-3.5467318788999997,-9.14274960165,0.003842,0.370055,1.505921,-1.0000000000010001e-05,-0.00010650000000000936,2.6499999999998747e-05,0.00016305962295826149,-5.077941972642108e-05,-6.733101304867706e-05
1504196532.94,-1.0,0.0488763436,0.05504472645,0.08558263455,-0.041748,-0.074395,-0.044571,0.031185147,-3.5426523125,-9.144348085599999,0.00341,0.369608,1.505378,5.0000000000050004e-06,-5.6000000000000494e-05,1.1500000000001093e-05,0.00012125341591850969,-1.512278236037723e-05,-1.0330010411729873e-05
1504196532.95,-1.0,0.07543275179999999,0.042492214449999996,0.05494665995,-0.043893,-0.074378,-0.042441,0.027066353999999997,-3.5383177732,-9.1460348294,0.002959,0.369135,1.504876,5.0000000000050004e-06,-5.5999999999986616e-05,1.1499999999999358e-05,0.00012125390023065563,-1.5121562620734608e-05,-1.0331873371294265e-05
1504196532.96,-1.0,0.0758446311,0.0629390797,0.06119349599999999,-0.051235,-0.06046,-0.045681,0.023967452599999998,-3.53303198885,-9.148084419249999,0.00262,0.368556,1.504338,9.999999999996123e-06,-0.00012100000000000999,2.199999999999945e-05,0.0003271966319240427,-4.38423102793184e-05,-4.125601248661237e-05
1504196532.97,-1.0,0.08211108045,0.0813363551,0.06418452424999999,-0.066019,-0.041155,-0.045741,0.022790654599999998,-3.52644192005,-9.150634148249999,0.00249,0.367836,1.503788,6.0000000000004494e-05,-0.00026299999999999935,4.0000000000000105e-05,0.0007294498766210467,2.519429773339965e-05,-3.605127352990234e-05
1504196532.98,-1.0,0.0487586638,0.0637824516,0.0680385377,-0.078697,-0.024002,-0.043659,0.0226141349,-3.5187731197499996,-9.153585949899998,0.002471,0.366998,1.503278,2.999999999998837e-05,-0.00013900000000000023,1.4999999999999389e-05,0.00036738313643613907,4.1660784637187476e-05,-2.399241891537507e-05
1504196532.99,-1.0,0.02470295135,0.036323831599999995,0.031008627299999997,-0.082849,-0.004794,-0.036229,0.0234771201,-3.5107610866999996,-9.15665543135,0.002564,0.366123,1.502851,2.0000000000006124e-05,-0.00013950000000000073,1.5000000000001124e-05,0.0002776657795766635,1.6226992523460382e-05,-2.289069502847685e-05
1504196533.0,-1.0,-0.0017259703999999998,0.029733762799999997,0.015406247149999998,-0.071015,0.008959,-0.034098,0.025369803549999997,-3.50341590585,-9.1594699399,0.00277,0.365321,1.502482,2.0000000000006124e-05,-0.00013950000000000073,1.4999999999999389e-05,0.00027766431550024784,1.623328942845781e-05,-2.2886095012775165e-05
1504196533.01,-1.0,-0.011964112999999998,0.035686399349999995,0.0026870221,-0.052939,0.00667,-0.025523,0.0269290609,-3.49755152915,-9.1617058561,0.002939,0.36468,1.502195,1.9999999999992246e-05,-0.00013799999999999923,1.6999999999999654e-05,0.00014796622933710424,2.0879018802766325e-06,-1.637174279922604e-05
1504196533.02,-1.0,0.0010002783,0.0469150136,-0.0011964113,-0.032846,-0.011617,-0.019051,0.027125193899999997,-3.4932169898499996,-9.1633533733,0.002961,0.364208,1.501979,2.0000000000006124e-05,-0.00013799999999999923,1.700000000000139e-05,0.000101565848680929,4.4924773138887986e-05,-1.2922984290342221e-05
1504196533.03,-1.0,0.022359162,0.04831736455,-0.01974078645,-0.017011,-0.029867,-0.014722,0.025673809699999998,-3.4904319012499996,-9.164422298149999,0.002801,0.363904,1.501803,1.9999999999992246e-05,-0.00014000000000000123,1.799999999999892e-05,8.620575147566534e-05,4.311124487133e-05,-5.206339455443576e-05
1504196533.04,-1.0,0.0414036763,0.041943042050000004,-0.051465299199999995,-0.013923,-0.043744,-0.014693,0.02309466075,-3.4880979185499994,-9.1653147033,0.00252,0.363649,1.501614,2.0000000000006124e-05,-0.00010699999999999599,3.5999999999999574e-05,6.893395058060747e-05,3.2263429965206925e-05,-3.479029937702993e-05
1504196533.05,-1.0,0.0370887503,0.026997707449999995,-0.07383426785,-0.01926,-0.045827,-0.017901,0.0200644059,-3.48556780285,-9.16628556165,0.002189,0.363373,1.501407,1.9999999999992246e-05,-0.00010100000000000386,4.0000000000000105e-05,6.45025466452509e-05,1.7981190772786704e-05,-2.1950346119625763e-05
1504196533.06,-1.0,0.03090075415,0.0134939504,-0.12000397604999999,-0.027742,-0.038299,-0.016862,0.0174362237,-3.4822433485,-9.167560426149999,0.001902,0.36301,1.501203,1.9999999999992246e-05,-9.750000000000036e-05,4.849999999999993e-05,0.00010026980344557401,1.5550348021253768e-05,-3.157935797892808e-05
1504196533.07,-1.0,-0.011689526799999999,-0.01862282835,-0.12926145365,-0.032935,-0.019077,-0.01477,0.0157298666,-3.4782618486,-9.16907065025,0.001715,0.362576,1.501039,2.0000000000006124e-05,-9.750000000000036e-05,4.849999999999993e-05,0.00010026883952196641,1.555344810966197e-05,-3.1577648633152045e-05
1504196533.08,-1.0,-0.01154242705,-0.0214373369,-0.12819252879999998,-0.028558,-0.002069,-0.009455,0.015582766849999999,-3.4754375333999996,-9.170139575099999,0.001699,0.362268,1.500921,2.0000000000006124e-05,-9.899999999998799e-05,5.10000000000007e-05,0.00016225995261898163,-2.319412841789159e-06,-1.2924143768966445e-05
1504196533.09,-1.0,0.006325289249999999,-0.025654196399999996,-0.11062881864999999,-0.015738,0.002084,-0.006238,0.0161221326,-3.47332910365,-9.1709437204,0.001758,0.362038,1.500844,2.0000000000006124e-05,-0.00010100000000000386,4.700000000000017e-05,0.0001419945557872282,3.119021487263396e-05,1.6671151206848478e-05
1504196533.1,-1.0,-0.00306948145,-0.0315381864,-0.08805391034999999,-0.000825,-0.000171,-0.005141,0.016239812399999998,-3.4729760642499996,-9.17107120685,0.00177,0.361999,1.500791,1.9999999999992246e-05,-0.00010200000000000486,4.4000000000000636e-05,0.00013413058337197192,4.075115154877906e-06,1.5208885532635996e-05
1504196533.11,-1.0,-0.016131939249999998,-0.0152199208,-0.0956148375,0.013126,0.003986,-0.01473,0.0167301449,-3.4735742699,-9.1708456539,0.001824,0.362065,1.500667,2.0000000000006124e-05,-0.00010299999999999199,3.999999999999837e-05,0.00013756419977184464,1.6895700417629556e-05,2.951019489083606e-05
1504196533.12,-1.0,-0.006717555249999999,-0.021908056099999997,-0.0815717147,0.015396,0.015698,-0.023286,0.01854437515,-3.4748197144499997,-9.17036512805,0.002022,0.362201,1.500438,9.999999999996123e-06,-0.00010400000000000686,4.0000000000000105e-05,7.691084577898799e-05,1.0261407828782154e-05,2.5761863406414953e-05
1504196533.13,-1.0,-0.015396440499999999,-0.0459931885,-0.0839841506,0.00914,0.028545,-0.031859,0.021682503149999997,-3.4760259324,-9.169904215499999,0.002364,0.362333,1.500116,2.4999999999997247e-05,-0.00010650000000000936,2.750000000000148e-05,5.4477357505966495e-05,9.992811903947185e-06,1.7394299022921444e-05
1504196533.14,-1.0,-0.0358531124,-0.0811009955,-0.0653907422,-0.005748,0.037188,-0.02763,0.025526709949999997,-3.4766829779499995,-9.169649242599998,0.002784,0.362404,1.499819,2.4999999999997247e-05,-0.00010649999999999549,2.7499999999999747e-05,5.4477460997848226e-05,9.991855953295214e-06,1.739482129314851e-05
1504196533.15,-1.0,-0.039971905399999993,-0.1066767387,-0.04374746565,-0.020748,0.033041,-0.021244,0.02890019755,-3.4763985850999997,-9.1697473091,0.003152,0.362373,1.499593,3.999999999999837e-05,-0.00010699999999999599,1.6999999999999654e-05,6.999621265846301e-05,3.850480042411064e-05,9.46824341374608e-07
1504196533.16,-1.0,-0.0130624578,-0.13340966659999998,-0.027252680349999996,-0.019865,0.01491,-0.012671,0.031018433949999997,-3.4763005186,-9.16977672905,0.003383,0.362362,1.499448,5.000000000000837e-05,-0.00011099999999999999,2.1000000000000185e-05,7.442756925324368e-05,5.2796758888140616e-05,-1.1879944855075486e-05
1504196533.17,-1.0,0.01846592195,-0.1258585461,-0.0014317708999999998,-0.005186,-0.015052,-0.008323,0.031057660549999998,-3.4772615703,-9.16940407635,0.003388,0.362467,1.499336,5.9999999999990616e-05,-0.00011799999999999311,2.199999999999945e-05,0.0001432098304696705,6.123959792203593e-05,2.8875641084891157e-06
1504196533.18,-1.0,0.0395992527,-0.1107563051,0.044335864649999994,0.015934,-0.046122,-0.01357,0.028635417999999996,-3.48009569215,-9.16834495815,0.003123,0.362776,1.499194,6.0000000000004494e-05,-0.00011800000000000699,2.199999999999945e-05,0.00014320958102320702,6.123914642253148e-05,2.8963320993780073e-06
1504196533.19,-1.0,0.0365788045,-0.09625226975000001,0.0627821733,0.040145,-0.094262,-0.024117,0.022525875049999998,-3.4851657301999994,-9.1664326614,0.002458,0.36333,1.498942,6.0000000000004494e-05,-0.0001260000000000011,2.2000000000001185e-05,0.00018738451236122167,3.565711695685536e-05,-2.867817351293045e-05
1504196533.2,-1.0,0.054122901349999995,-0.0618407349,0.0987137389,0.053722,-0.135923,-0.031493,0.0127682583,-3.4914517928499995,-9.1640594521,0.001393,0.364015,1.498586,5.4999999999999494e-05,-0.00011999999999999511,2.199999999999945e-05,0.00021108126453595055,1.4989040767465767e-05,-4.397675413048141e-05
1504196533.21,-1.0,0.06651850695,-0.03986403225,0.09935117114999999,0.073772,-0.165921,-0.034608,7.845319999999999e-05,-3.49921865965,-9.161107650449999,8e-06,0.364863,1.498195,5.4999999999999494e-05,-0.00011999999999999511,2.199999999999945e-05,0.0002110803761725677,1.4998308628166868e-05,-4.397353929908032e-05
1504196533.22,-1.0,0.0514064593,-0.08223856689999999,0.08938761475,0.074878,-0.164858,-0.039945,-0.013101684399999999,-3.5080152247,-9.15773416285,-0.001431,0.365824,1.497748,3.999999999999837e-05,-0.00010800000000001087,2.300000000000045e-05,0.0002337801119884908,-7.1496042093333045e-06,-3.214851791089046e-05
1504196533.23,-1.0,0.07783538104999999,-0.04647371435,0.09119203834999999,0.061063,-0.156221,-0.036783,-0.025310963649999997,-3.5153505989,-9.154890234349999,-0.002765,0.366624,1.4973,2.0000000000006124e-05,-5.1499999999995993e-05,1.1499999999999358e-05,0.00010356925422305707,-8.880545510070448e-07,1.9224983128784956e-06
1504196533.24,-1.0,0.0370299104,0.00328522775,0.04361017255,0.041935,-0.14009,-0.026171,-0.03717701015,-3.5199204977999994,-9.153095617399998,-0.004062,0.367123,1.496971,1.9999999999992246e-05,-5.1499999999995993e-05,1.1500000000001093e-05,0.00010357001349881045,-8.882600073256697e-07,1.9224203842149734e-06
1504196533.25,-1.0,-0.02986124925,-0.011836626549999998,-0.02986124925,0.029312,-0.104843,-0.005974,-0.047944711849999995,-3.5229017193999996,-9.1518992061,-0.005239,0.367449,1.496878,7.999999999999674e-05,-0.00019500000000000073,2.3999999999999716e-05,0.00034421229110903617,1.75892972762437e-05,-1.600912126198395e-06
1504196533.26,-1.0,-0.047856451999999994,0.01169933345,-0.0402268783,0.015704,-0.062125,0.009939,-0.05599597149999999,-3.52444136345,-9.151261773849999,-0.006118,0.367617,1.496989,5.000000000000837e-05,-9.100000000000774e-05,2.999999999999531e-06,0.00014199642323364792,3.1172324592043665e-05,1.673514691857836e-05
1504196533.27,-1.0,-0.07303992919999999,0.035362779899999995,-0.030989014,0.005363,-0.016228,0.017313,-0.06043838395,-3.52446097675,-9.151222547249999,-0.006604,0.367619,1.497215,4.999999999999449e-05,-9.099999999999386e-05,2.0000000000002655e-06,0.0001419969998450732,3.1169999014757366e-05,1.6739582815117338e-05
1504196533.28,-1.0,-0.08207185384999999,0.04192342875,-0.06897997609999999,-0.003926,0.023274,0.017228,-0.0611346561,-3.5232449521499998,-9.1516834598,-0.00668,0.367487,1.497454,5.000000000000837e-05,-9.199999999999486e-05,1.000000000001e-06,0.0001454283477646534,4.3972018036075866e-05,3.106104278582933e-05
1504196533.29,-1.0,-0.07817861379999999,0.046767913849999995,-0.050818060299999995,-0.014337,0.051071,0.00969,-0.058584927099999996,-3.5211953623,-9.1524876051,-0.006401,0.367263,1.49763,4.999999999999449e-05,-9.400000000001074e-05,-1.000000000001e-06,0.00013704933757896498,6.17034719319065e-05,2.2687530167764258e-05
1504196533.3,-1.0,-0.052092924799999996,0.0432669398,-0.039403119699999996,-0.020569,0.063923,-0.004219,-0.053701215399999995,-3.5184495002999996,-9.15357614325,-0.005867,0.366963,1.497655,6.0000000000004494e-05,-9.699999999999986e-05,-4.000000000000531e-06,0.00015229432961150202,6.956782592792976e-05,5.97128583333939e-05
1504196533.31,-1.0,-0.059114486200000003,0.02297698095,-0.02217283565,-0.019552,0.051138,-0.014868,-0.0490724766,-3.5161155175999994,-9.154507774999999,-0.00536,0.366707,1.497559,5.4999999999999494e-05,-0.00010699999999999599,-6.499999999999562e-06,0.00016218305146842305,5.081857640276688e-05,7.596466439108163e-05
1504196533.32,-1.0,-0.020025179299999998,-0.00418743955,-0.00932612415,-0.001638,0.021156,-0.017986,-0.04596376855,-3.5154388587499996,-9.1547823612,-0.005021,0.366634,1.497382,5.4999999999999494e-05,-0.00010699999999999599,-6.499999999999562e-06,0.000162186332352654,5.080618065478326e-05,7.59726387377091e-05
1504196533.33,-1.0,-0.012140632699999999,-0.0136312435,-0.017730423199999998,0.024861,0.000689,-0.015769,-0.04502233014999999,-3.5170765693,-9.154154735599999,-0.004918,0.366812,1.497215,5.9999999999990616e-05,-0.00011900000000000799,-7.000000000000062e-06,0.00018588531154550836,3.0134449214180847e-05,6.0657376107497996e-05
1504196533.34,-1.0,-0.0006276255999999999,-0.021201977299999997,0.031430313249999994,0.053412,-0.026195,-0.007133,-0.04651294095,-3.5219112477499994,-9.15228166545,-0.005082,0.367341,1.497126,3.0000000000002247e-05,-5.7999999999988616e-05,9.999999999992654e-07,9.294329301945403e-05,1.5063004379589628e-05,3.0330774032472085e-05
1504196533.35,-1.0,0.016661498349999998,-0.039834612299999995,0.07631535029999999,0.066048,-0.043355,-0.000677,-0.049739328799999996,-3.5288641625999997,-9.14959464335,-0.005436,0.368101,1.497096,3.0000000000002247e-05,-5.8000000000002494e-05,1.000000000001e-06,9.294371718548966e-05,1.5060190602156354e-05,3.0332164154711627e-05
1504196533.36,-1.0,0.018426695349999998,-0.0326953711,0.0606835502,0.059626,-0.045434,0.000383,-0.05388754175,-3.53556210455,-9.14698607445,-0.005891,0.368833,1.4971,0.00014000000000000123,-0.0002460000000000101,9.999999999999593e-06,0.00043047031517318146,5.8800144580928304e-05,0.00010653472249178009
1504196533.37,-1.0,0.0095712904,-0.032607111249999994,0.04474774395,0.04382,-0.028242,-0.011416,-0.056554950550000004,-3.54074001575,-9.14496590455,-0.006185,0.369399,1.497011,7.000000000000062e-05,-0.00012099999999999611,1.1000000000000593e-05,0.00021645228468769595,3.501561140328846e-05,7.400377873956199e-05
1504196533.38,-1.0,-0.014494228699999999,-0.04564995575,-0.007502087249999999,0.028189,0.010262,-0.02432,-0.05598616484999999,-3.5442998297,-9.1435831669,-0.006123,0.369788,1.496796,7.000000000000062e-05,-0.00011300000000000199,1.799999999999892e-05,0.00019033057888218075,4.439319235149952e-05,4.78880243065527e-05
1504196533.39,-1.0,-0.023153500649999995,-0.033764295949999995,-0.019122967499999997,0.011423,0.047696,-0.025482,-0.05181833859999999,-3.5461630931999997,-9.14288689475,-0.005667,0.369992,1.496536,7.000000000000062e-05,-0.00010899999999999799,2.1000000000000185e-05,0.00022089331821284475,4.930619659493374e-05,6.12221246766298e-05
1504196533.4,-1.0,-0.0461500949,-0.03182257925,0.005452497399999999,-0.009709,0.078763,-0.017034,-0.0451302033,-3.5461630931999997,-9.14292612135,-0.004936,0.369992,1.496357,7.000000000000062e-05,-0.00010699999999999599,2.5000000000000716e-05,0.00021746155823487712,3.650672390076437e-05,4.690209237245835e-05
1504196533.41,-1.0,-0.054868206749999995,-0.05811420789999999,-0.0232417605,-0.022451,0.094837,-0.003208,-0.0373044966,-3.5450059084999994,-9.143406647199999,-0.00408,0.369865,1.496318,7.000000000000062e-05,-0.00010799999999999699,2.499999999999898e-05,0.00019377226059535957,5.714808227197388e-05,6.224652510289364e-05
1504196533.42,-1.0,-0.0431884866,-0.07090207949999999,-0.029694536199999996,-0.024623,0.095909,0.006393,-0.02923362365,-3.5435937509,-9.14398523955,-0.003197,0.369711,1.496392,7.499999999999174e-05,-0.00011150000000000049,2.249999999999995e-05,0.00018761906142605866,3.642180970264697e-05,6.788281785352623e-05
1504196533.43,-1.0,-0.020947004399999997,-0.059153712799999994,0.026272015349999997,-0.022625,0.082034,0.011758,-0.02199631595,-3.5424757928,-9.14443634545,-0.002405,0.369589,1.496515,7.500000000000562e-05,-0.00011150000000000049,2.249999999999995e-05,0.00018762095319457828,3.640901906654115e-05,6.788944436442179e-05
1504196533.44,-1.0,0.00832584585,-0.04104083025,0.04650313429999999,-0.011084,0.057431,0.011822,-0.0162594257,-3.5420344935499997,-9.144622671799999,-0.001778,0.36954,1.496637,5.4999999999999494e-05,-0.00010450000000000736,8.000000000001062e-06,0.0002051225290473635,4.601365352741027e-05,6.816679168886175e-05
1504196533.45,-1.0,0.03468612105,-0.02711538725,0.0447575506,0.010032,0.027424,0.008708,-0.0126898051,-3.5430936117499994,-9.14422059915,-0.001388,0.369656,1.496711,5.4999999999999494e-05,-0.00010449999999999349,7.999999999999327e-06,0.00020512476129774804,4.5999556353537585e-05,6.81759342214816e-05
1504196533.46,-1.0,0.05045521425,-0.00899269805,0.07054904009999999,0.024755,-0.001464,0.005582,-0.011405133949999998,-3.5456531473999995,-9.143230127499999,-0.001247,0.369936,1.496748,3.999999999999837e-05,-9.300000000000974e-05,-2.999999999999531e-06,0.00017655950502537543,4.619095494007297e-05,7.952183635551169e-05
1504196533.47,-1.0,0.053485469099999995,0.00814932615,0.07989477754999999,0.037379,-0.023944,0.005643,-0.01248386545,-3.5493306411499996,-9.141798356599999,-0.001366,0.370338,1.496779,3.0000000000002247e-05,-9.099999999999386e-05,-4.000000000000531e-06,0.00014298192897777007,8.559252248518945e-05,7.865392782091529e-05
1504196533.48,-1.0,0.0491705431,-0.009237864299999999,0.0169066646,0.050182,-0.024048,0.005665,-0.01415099595,-3.5539299599999996,-9.14000373965,-0.001548,0.370842,1.496815,3.0000000000002247e-05,-8.900000000000574e-05,-7.999999999999327e-06,0.00011586613337200014,9.345521893289188e-05,7.967017483878625e-05
1504196533.49,-1.0,0.0101793027,-0.02246703515,0.02801759905,0.044952,-0.00909,0.008831,-0.015425860449999999,-3.5588038650500002,-9.1381110562,-0.001688,0.371375,1.496899,3.500000000000725e-05,-8.249999999999924e-05,-1.4500000000000624e-05,2.34035891117923e-05,8.124822216748484e-05,0.00011464584007681022
1504196533.5,-1.0,-0.0125917386,-0.0067469752,0.059977471399999996,0.018376,0.004978,0.011963,-0.01599464615,-3.5616576001999998,-9.1369930981,-0.00175,0.371687,1.497031,3.499999999999337e-05,-8.249999999999924e-05,-1.4499999999998889e-05,2.341277698980626e-05,8.124532419939712e-05,0.00011464709056119293
1504196533.51,-1.0,-0.04670907395,-0.0207116448,0.010954028049999998,-0.004934,0.026479,0.01402,-0.01538663385,-3.5619125730999994,-9.1368950316,-0.001684,0.371715,1.497213,3.0000000000002247e-05,-7.499999999999174e-05,-1.8000000000000654e-05,-6.704366005871876e-05,7.21685585294285e-05,9.536502692286675e-05
1504196533.52,-1.0,-0.0664106338,-0.0215157901,-0.056094038,-0.001535,0.057342,0.023579,-0.012601545249999999,-3.5615595336999997,-9.137042131349999,-0.001379,0.371676,1.497486,2.999999999998837e-05,-7.200000000000262e-05,-1.8000000000000654e-05,-0.00014651035128299128,0.00010958820067941133,0.00010481185598854026
1504196533.53,-1.0,-0.0747070597,-0.0103362091,-0.044208378199999995,0.015686,0.082762,0.034238,-0.0077472535,-3.5625598119999995,-9.136659671999999,-0.000847,0.371786,1.497866,2.0000000000006124e-05,-6.799999999999862e-05,-1.4999999999999389e-05,-0.00016961320277442127,7.472082592441254e-05,6.622625169017127e-05
1504196533.54,-1.0,-0.08944645465,0.0022359162,0.022221868899999997,0.019921,0.080591,0.037453,-0.0028831550999999997,-3.5645113353499998,-9.13590455995,-0.000315,0.371999,1.498307,9.999999999996123e-06,-6.50000000000095e-05,-1.1999999999999858e-05,-0.00013659647660690943,3.7856273711334154e-05,3.210492516358965e-05
1504196533.55,-1.0,-0.05631959095,0.008090486249999999,0.0245362383,0.012261,0.054017,0.033217,0.00065704555,-3.5658744597,-9.1353651942,7.2e-05,0.372149,1.498717,5.0000000000050004e-06,-3.599999999999437e-05,-1.6999999999999654e-05,-8.23556468454445e-05,2.209616695991734e-05,3.0108391700811588e-05
1504196533.56,-1.0,0.017200864099999998,-0.006766588499999999,-0.0035794272499999995,0.005616,0.018915,0.025796,0.0025497289999999997,-3.5665805385,-9.135090607999999,0.00028,0.372226,1.498998,5.0000000000050004e-06,-3.599999999999437e-05,-1.5000000000001124e-05,-2.4669260099363655e-05,1.9109349170598477e-05,4.245024919913298e-05
1504196533.57,-1.0,0.05554486559999999,-0.0315970263,-0.011954306349999999,0.003284,-0.011957,0.016239,0.0023634026499999997,-3.56733565055,-9.1347964085,0.000259,0.372309,1.499159,1.9999999999992246e-05,-3.400000000000625e-05,-1.4000000000000123e-05,1.1218134426727033e-05,5.303614299023707e-05,3.9885255533333996e-05
1504196533.58,-1.0,0.06208590115,-0.05746696899999999,0.03590214565,0.00105,-0.030043,0.007727,0.0007649187,-3.56855167515,-9.134315882649998,8.3e-05,0.372442,1.499212,2.4999999999997247e-05,-2.5499999999997747e-05,-1.650000000000089e-05,2.0833931833053043e-05,8.65262014340118e-05,4.860532349648672e-05
1504196533.59,-1.0,0.0572904493,-0.06541035549999999,0.04478697055,0.007473,-0.029027,0.005601,-0.00132389775,-3.5703364854499995,-9.133629417149999,-0.000145,0.372637,1.499241,2.5000000000011124e-05,-2.5499999999997747e-05,-1.6499999999999154e-05,2.0838552208690686e-05,8.652717449653125e-05,4.8608088150881024e-05
1504196533.6,-1.0,0.01921122735,-0.06959779505,0.05543699245,0.021417,-0.017424,0.009874,-0.0033538743,-3.5733275137,-9.13245261915,-0.000367,0.372965,1.49933,1.5000000000001124e-05,-1.5000000000001124e-05,-2.549999999999948e-05,-5.622633630397722e-05,3.6529119243677854e-05,3.0933700346791326e-05
1504196533.61,-1.0,-0.02058415835,-0.07636438355,0.10486250844999999,0.031205,0.013384,0.022645,-0.0039618866,-3.5777797328,-9.13070703545,-0.000434,0.373453,1.499554,1.4999999999987246e-05,-1.5000000000001124e-05,-2.549999999999948e-05,-5.622358123136273e-05,3.6529850774735806e-05,3.0930751447111327e-05
1504196533.62,-1.0,-0.019662333249999997,-0.09191773044999998,0.11433573234999998,0.033446,0.033599,0.034355,-0.0027850886,-3.5830360972,-9.12864763895,-0.000305,0.374028,1.499896,3.333333333341293e-06,-5.0000000000050004e-06,-3.300000000000004e-05,-0.00017902604934638688,4.865946853627179e-05,5.673104928838324e-05
1504196533.63,-1.0,-0.0355196863,-0.10498018824999998,0.10459772889999999,0.021722,0.037952,0.039664,-0.00114737805,-3.5876256094,-9.12684321535,-0.000125,0.374531,1.500322,3.333333333327415e-06,2.000000000002e-06,-3.5999999999999574e-05,-0.00021248528526873756,2.8468175640838922e-05,6.405742816506521e-05
1504196533.64,-1.0,-0.02848831825,-0.09738984115,0.09005446695,-0.000735,0.031741,0.040704,4.903325e-05,-3.5899792053999997,-9.12592139025,6e-06,0.374789,1.500784,3.333333333341293e-06,7.000000000007001e-06,-3.900000000000084e-05,-0.00025837497575342816,2.6488187359507975e-05,7.437454590297765e-05
1504196533.65,-1.0,-0.0024320492,-0.10715726454999999,0.0560155848,-0.016761,0.026549,0.037483,0.0010885381499999998,-3.5905381844499997,-9.1256958373,0.000119,0.37485,1.501194,1.9999999999992246e-05,6.999999999993123e-06,-3.799999999999984e-05,-0.0002667210351390281,4.427829479758394e-05,6.60182071152704e-05
1504196533.66,-1.0,0.024722564649999997,-0.10227355285,-0.009502643849999999,-0.01465,0.020144,0.032161,0.0023634026499999997,-3.5904793445499994,-9.12572525725,0.000259,0.374844,1.501534,2.0000000000006124e-05,2.000000000002e-06,-3.399999999999931e-05,-0.0002388346951569531,4.591130548625699e-05,6.667760329159833e-05
1504196533.67,-1.0,0.009669356899999999,-0.0706274933,0.006688135299999999,-0.010399,0.013722,0.025775,0.00304986815,-3.59040089135,-9.1257546772,0.000334,0.374835,1.501821,2.4999999999997247e-05,-8.5000000000085e-06,-2.9500000000000012e-05,-0.00014066489764719137,4.81726605661148e-05,4.3808205021367286e-05
1504196533.68,-1.0,-0.0010198916,-0.040893730499999996,-0.012895744749999999,-0.002969,0.006206,0.021531,0.0029714149499999996,-3.59036166475,-9.125774290499999,0.000325,0.374831,1.502071,2.4999999999997247e-05,-8.499999999994623e-06,-2.9500000000000012e-05,-0.00014066334483997522,4.8179094096045816e-05,4.380159798378358e-05
1504196533.69,-1.0,-0.03301899055,-0.0235555733,-0.048258524649999995,0.011931,-0.002435,0.015168,0.0017455836999999998,-3.5912442632499997,-9.125421251099999,0.000192,0.374927,1.50228,3.999999999999837e-05,-1.5000000000001124e-05,-2.3999999999999716e-05,2.7224307851847485e-05,6.634871387722896e-05,0.0001019730793704321
1504196533.7,-1.0,-0.03672590425,-0.028086245599999997,-0.01872089485,0.027931,-0.007934,0.010968,6.864654999999999e-05,-3.593744959,-9.124440586099999,8e-06,0.375201,1.502429,3.999999999999837e-05,-9.999999999996123e-06,-2.1000000000000185e-05,3.3627216980525176e-05,6.461762525344916e-05,9.975510154569545e-05
1504196533.71,-1.0,-0.0409525704,-0.0248108245,0.019113160849999998,0.037593,-0.005875,0.002443,-0.0013925443,-3.59761858575,-9.1229107487,-0.000153,0.375626,1.502507,3.0000000000002247e-05,-1.000000000001e-06,-1.899999999999992e-05,3.857563339737524e-05,5.523733637979866e-05,0.00010788320707222354
1504196533.72,-1.0,-0.06261546024999999,-0.006717555249999999,0.022672974799999995,0.039823,0.004764,0.000294,-0.0023241760499999996,-3.6014922125,-9.1213809113,-0.000255,0.376051,1.502553,2.0000000000006124e-05,5.0000000000050004e-06,-2.000000000000092e-05,4.204365697257906e-05,6.80158868660019e-05,0.00012221085842312185
1504196533.73,-1.0,-0.07157873834999999,-0.0048837117,0.01626923235,0.033586,0.023997,-0.001885,-0.0017455836999999998,-3.6048264734999993,-9.1200668202,-0.000192,0.376416,1.502581,3.0000000000002247e-05,8.999999999995123e-06,-1.9999999999999185e-05,3.118997369755405e-05,8.523172112928634e-05,0.00013307542362950286
1504196533.74,-1.0,-0.05831034089999999,-0.0038834333999999996,-0.02458527155,0.028401,0.045346,0.002339,0.00114737805,-3.607474269,-9.11901750865,0.000125,0.376706,1.502626,1.9999999999992246e-05,1.1999999999998123e-05,-2.300000000000045e-05,-2.59574582366362e-05,0.00011554332040830673,0.0001515764037036682
1504196533.75,-1.0,-0.0548387868,-0.0022555294999999998,0.0007158854499999999,0.020959,0.053922,0.010851,0.0048640984,-3.60970037855,-9.11813491015,0.000533,0.376951,1.502749,3.0000000000002247e-05,9.999999999996123e-06,-1.3000000000000858e-05,-5.010544176742293e-05,7.913347782784186e-05,0.00014015471891482
1504196533.76,-1.0,-0.0283412185,-0.01883857465,0.0327934376,0.005919,0.042321,0.01298,0.00828661925,-3.61107330955,-9.1175955444,0.000909,0.377101,1.5029,3.0000000000002247e-05,1.0000000000010001e-05,-1.4999999999999389e-05,-7.232988943628449e-05,5.6485571358955156e-05,0.00013514917900614432
1504196533.77,-1.0,0.00244185585,-0.0264583417,0.038442067999999996,-0.005002,0.00938,0.010884,0.009532063799999999,-3.6115342220999995,-9.11740921805,0.001046,0.377151,1.503032,2.4999999999997247e-05,8.999999999995123e-06,-1.650000000000089e-05,-0.00010805133569991021,5.898046955610248e-05,0.00014473507947843078
1504196533.78,-1.0,0.037196623449999994,-0.0146119085,0.04872924385,-0.007398,-0.032143,-0.002923,0.0082964259,-3.6112498292499997,-9.1175170912,0.00091,0.377121,1.503016,2.4999999999997247e-05,8.999999999995123e-06,-1.6499999999999154e-05,-0.00010804296544741909,5.8996315877024585e-05,0.00014472893321371139
1504196533.79,-1.0,0.08009091055,-0.00397169325,0.07120608565,-0.000209,-0.081195,-0.025241,0.00385401345,-3.6115734486999997,-9.1173994114,0.000423,0.377156,1.50275,3.999999999999837e-05,6.0000000000060005e-06,-1.899999999999992e-05,-9.594385267419625e-05,7.721532355908778e-05,0.00015042602863690746
1504196533.8,-1.0,0.08786758399999998,0.01171894675,0.10098888169999999,0.002748,-0.132332,-0.058236,-0.0039128533499999995,-3.6122991408,-9.1171052119,-0.00043,0.377236,1.502165,4.000000000001225e-05,-2.000000000002e-06,-2.199999999999945e-05,-5.547073194289709e-05,6.334346615033404e-05,0.00018003277841183163
1504196533.81,-1.0,0.06834254384999999,0.021290237150000002,0.10954028049999999,-0.01338,-0.175841,-0.103019,-0.014768814899999998,-3.6118480349,-9.117271924949998,-0.00162,0.377186,1.501143,3.999999999999837e-05,-2.000000000002e-06,-2.300000000000045e-05,-5.545904437909144e-05,6.335327262818602e-05,0.00018002836754893448
1504196533.82,-1.0,0.0235947999,-0.00013729309999999998,0.08688691899999999,-0.040006,-0.197952,-0.147857,-0.0273409402,-3.6092688859499997,-9.11827220325,-0.002998,0.376903,1.499653,4.999999999999449e-05,-7.999999999994123e-06,-2.3999999999999716e-05,-6.093763160963661e-06,7.809106308909186e-05,0.0001840625613128699
1504196533.83,-1.0,0.033244543499999994,-0.07857087979999999,0.0502492746,-0.049301,-0.192493,-0.200186,-0.03788308895,-3.6061013379999998,-9.119478421199998,-0.004154,0.376557,1.497613,4.999999999999449e-05,-8.999999999995123e-06,-2.5000000000000716e-05,-1.9341404733363987e-05,5.497814954291691e-05,0.000146337745831282
1504196533.84,-1.0,-0.060850263249999995,-0.10814773619999998,0.057202189449999996,-0.029883,-0.175589,-0.215125,-0.04777799879999999,-3.6046597604499997,-9.120007980299999,-0.005239,0.376398,1.49535,3.500000000000725e-05,4.5000000000045e-06,-1.4000000000000123e-05,-1.7965052053758868e-05,3.073378133899851e-05,6.125728637840222e-05
1504196533.85,-1.0,-0.10658847885,-0.0895739411,0.08354285135,0.003178,-0.157782,-0.183075,-0.057859234999999995,-3.6060228847999998,-9.11940977465,-0.006345,0.376548,1.493355,3.499999999999337e-05,4.499999999990623e-06,-1.4000000000000123e-05,-1.7963175216184624e-05,3.07349263906076e-05,6.125675787815865e-05
1504196533.86,-1.0,-0.16746816204999998,-0.13006559895,0.09885103199999999,0.056406,-0.135909,-0.123245,-0.06881326304999999,-3.6125148870999997,-9.116761979149999,-0.007548,0.37726,1.491969,0.00012000000000000899,3.499999999999337e-05,-5.199999999999996e-05,-9.765214597834415e-05,0.00011661489803116432,0.0002328305418082266
1504196533.87,-1.0,-0.2167073517,-0.09580116385,0.07329490209999999,0.105372,-0.106554,-0.052761,-0.0804733699,-3.6231452956999997,-9.11244705315,-0.008831,0.378426,1.491369,4.999999999999449e-05,3.600000000000825e-05,-1.9999999999999185e-05,-3.137415628184925e-05,4.670189509314859e-05,0.00010257978913541521
1504196533.88,-1.0,-0.191818074,-0.08826965665,0.13851893125,0.127665,-0.081235,0.011279,-0.09159411099999999,-3.6368157657999998,-9.10689648925,-0.010058,0.379926,1.491477,6.0000000000004494e-05,4.500000000000337e-05,-1.899999999999992e-05,-4.735219568674509e-05,9.040458529963047e-05,7.156669077168498e-05
1504196533.89,-1.0,-0.11095243809999998,-0.04459083755,0.14412833505,0.111546,-0.069428,0.053928,-0.10198916,-3.64906427165,-9.1018852911,-0.011204,0.381271,1.492076,5.9999999999990616e-05,4.899999999999349e-05,-1.899999999999992e-05,-4.385849654386931e-05,0.00010318972054434994,8.587864249720578e-05
1504196533.9,-1.0,-0.028086245599999997,-0.0263014353,0.12285771119999998,0.07194,-0.081896,0.060286,-0.11198213635,-3.65777257685,-9.09826663725,-0.012307,0.382228,1.492764,5.000000000000837e-05,5.1999999999996493e-05,-2.1000000000000185e-05,-8.23803671823331e-05,7.12543779659569e-05,7.099128990251113e-05
1504196533.91,-1.0,0.0542307745,-0.01691647125,0.11857220514999998,0.02057,-0.112357,0.043172,-0.1224654452,-3.6617736900499995,-9.0965308602,-0.013462,0.382668,1.493268,6.0000000000004494e-05,5.000000000000837e-05,-2.5000000000000716e-05,-0.00011297014577560383,6.641106291671584e-05,5.7629247419699325e-05
1504196533.92,-1.0,0.12603506579999998,-0.0177892631,0.14824712804999998,-0.024283,-0.13859,0.010049,-0.13336063334999998,-3.66165601025,-9.09642298705,-0.01466,0.382655,1.493388,2.999999999998837e-05,2.2499999999994746e-05,-1.3499999999999623e-05,-5.294559709412283e-05,2.149623189118266e-05,2.2627957204535143e-05
1504196533.93,-1.0,0.15579824854999996,-0.0177500365,0.14044103465,-0.051719,-0.123405,-0.026319,-0.14202971195,-3.65840020245,-9.097599785049999,-0.01561,0.382297,1.493076,3.0000000000002247e-05,2.2499999999994746e-05,-1.3499999999999623e-05,-5.294494387442228e-05,2.1497377606261026e-05,2.2626747203768893e-05
1504196533.94,-1.0,0.11280589494999999,-0.0233594403,0.12697650419999998,-0.061788,-0.062557,-0.04886,-0.1458837254,-3.6541343097,-9.09924730225,-0.016031,0.381829,1.492511,0.0001300000000000051,7.200000000000262e-05,-5.800000000000076e-05,-6.522040409828733e-05,0.00013108079032631004,9.472823602296732e-05
1504196533.95,-1.0,0.0102577559,0.004726805299999999,0.2127454651,-0.067545,0.018476,-0.047946,-0.14418717495,-3.6492996312499995,-9.101218438899998,-0.015841,0.381297,1.491948,8.999999999999286e-05,4.700000000000537e-05,-2.1000000000000185e-05,1.9940648048333287e-05,6.448273181991482e-05,5.2406019264816806e-05
1504196533.96,-1.0,-0.08621026015,0.0282627653,0.19341655794999998,-0.068053,0.101573,-0.026744,-0.13704793375,-3.64365100085,-9.1035916482,-0.015053,0.380677,1.491649,0.00010000000000000286,4.600000000000437e-05,-2.199999999999945e-05,4.997246085536311e-05,7.180604978218597e-05,3.0721865321825526e-05
1504196533.97,-1.0,-0.1555923089,0.02635046855,0.1504732376,-0.060277,0.161143,0.007323,-0.12602525914999999,-3.6384534763499996,-9.1058275644,-0.013839,0.380106,1.491728,0.00010000000000000286,4.599999999999049e-05,-2.199999999999945e-05,9.584090874104056e-05,7.372838778718638e-05,2.0475737551595152e-05
1504196533.98,-1.0,-0.1737934513,0.028605998049999998,0.15174810209999998,-0.048634,0.167407,0.036154,-0.1145612853,-3.6341287437,-9.1077104412,-0.012578,0.379631,1.49216,0.00010000000000000286,5.100000000000937e-05,-2.3999999999999716e-05,6.873856330402717e-05,8.166392674091583e-05,2.14361976595967e-05
1504196533.99,-1.0,-0.10069468219999998,-0.004128599649999999,0.12386779614999999,-0.037255,0.133194,0.053313,-0.1047546353,-3.6311671353999997,-9.109004919,-0.0115,0.379306,1.492753,0.00010000000000000286,5.6999999999987616e-05,-2.599999999999998e-05,4.6635308483811144e-06,0.00011629014533331983,7.063143768637481e-06
1504196534.0,-1.0,-0.00150041745,-0.0037559469499999997,0.07940444505,-0.036666,0.071388,0.050221,-0.098458766,-3.6284016600999998,-9.110181717,-0.010807,0.379002,1.493304,9.999999999998899e-05,6.40000000000085e-05,-3.0000000000000512e-05,-3.0959415095344056e-05,9.961632156918476e-05,-2.856008684049005e-05
1504196534.01,-1.0,0.06657734685,0.014298095700000001,0.07282418289999999,-0.039178,0.010693,0.028975,-0.09636014289999999,-3.6250575924499997,-9.1115350347,-0.010575,0.378636,1.493634,0.00010000000000000286,7.300000000000362e-05,-3.200000000000078e-05,-0.00011558831490887655,5.841452696619953e-05,-3.243228357008299e-05
1504196534.02,-1.0,0.12651559164999998,0.03594137225,-0.0036873003999999994,-0.042568,-0.028676,0.003419,-0.0964385961,-3.62066421325,-9.1132806184,-0.010582,0.378153,1.493649,9.000000000000674e-05,8.699999999998986e-05,-3.300000000000004e-05,-0.00015700932407480828,7.078904534774111e-05,-3.4988400312685464e-05
1504196534.03,-1.0,0.12677056455,0.048778277099999996,-0.011483587149999998,-0.041519,-0.041451,-0.013636,-0.09758597414999999,-3.6161433476,-9.1150654287,-0.010706,0.377657,1.493446,8.499999999998786e-05,0.00010399999999999299,-3.099999999999978e-05,-0.00018314985023581976,5.580178639674749e-05,-2.6670731237077305e-05
1504196534.04,-1.0,0.1138552065,0.009267284249999999,0.010551955399999998,-0.041509,-0.041447,-0.015772,-0.09890006525,-3.6122403009,-9.1165952661,-0.010848,0.377229,1.49319,8.500000000000174e-05,0.00010400000000000686,-3.099999999999978e-05,-0.0001831509530063613,5.579689110457586e-05,-2.6680900455211543e-05
1504196534.05,-1.0,0.046091255,0.0037069137,0.0037951735499999993,-0.039205,-0.014833,-0.007277,-0.09981208369999998,-3.6084745472999997,-9.11807607025,-0.010946,0.376816,1.493047,0.00010000000000000286,0.0001280000000000031,-2.3999999999999716e-05,-0.00019101057795900545,4.9917612708449965e-05,-1.4103422051880976e-05
1504196534.06,-1.0,-0.00867888525,0.0007158854499999999,-0.0249677309,-0.03153,0.020253,0.007619,-0.09905697165,-3.6051893195499995,-9.11939016135,-0.010862,0.376456,1.493091,0.00010000000000000286,0.0001290000000000041,-2.199999999999945e-05,-0.0001441156275845401,6.405699671119258e-05,9.125388665598422e-06
1504196534.07,-1.0,-0.05724141605,-0.00244185585,-0.018867994599999997,-0.019576,0.054241,0.018254,-0.09629149634999999,-3.6030710831499997,-9.12025314655,-0.010557,0.376224,1.493287,0.00010999999999999899,0.0001280000000000031,-2.1000000000000185e-05,-0.00011034856752201172,7.757429589072551e-05,-1.101644880241448e-05
1504196534.08,-1.0,-0.07144144525,0.0012748644999999999,-0.012375992300000001,-0.012932,0.087214,0.022478,-0.09091745215,-3.6015510524,-9.120910192099998,-0.009968,0.376057,1.493571,0.00011999999999999511,0.00013299999999999423,-2.1000000000000185e-05,-0.00013045121382537772,0.000111085987876125,1.853173146937337e-05
1504196534.09,-1.0,-0.0898877539,0.0097674234,-0.020976424349999998,-0.013832,0.107467,0.021374,-0.08368995109999999,-3.6000212149999995,-9.1215770443,-0.009174,0.375889,1.493867,0.00012000000000000899,0.00013900000000000023,-2.300000000000045e-05,-0.00011263637533898141,0.00011944030838417774,3.632829213573441e-05
1504196534.1,-1.0,-0.08738705815,-0.0011375714,-0.04333558635,-0.020083,0.122442,0.014933,-0.07481493285,-3.5980991116,-9.1224204162,-0.008201,0.375678,1.494101,0.0001300000000000051,0.00014749999999999486,-3.099999999999978e-05,-0.00011870836140026597,0.0001497474919727182,5.184519913681296e-05
1504196534.11,-1.0,-0.07986535759999999,0.0196525266,-0.0620564812,-0.029521,0.13851,0.007418,-0.06407665109999999,-3.5949413703,-9.12374431395,-0.007023,0.375332,1.494242,0.00012999999999999123,0.00014750000000000874,-3.099999999999978e-05,-0.0001186997241036103,0.0001497532883731889,5.1827033207829665e-05
1504196534.12,-1.0,-0.06700883945,0.014709975,-0.09656608254999999,-0.032453,0.166248,-0.002242,-0.05045521425,-3.59119523,-9.1253035713,-0.005529,0.374922,1.494274,0.0001300000000000051,0.00015199999999999936,-3.500000000000031e-05,-0.00019393050030513947,0.00014327328254171157,3.906886890925332e-05
1504196534.13,-1.0,-0.1023421994,0.0042953127,-0.13035979844999998,-0.019563,0.174669,-0.006503,-0.0357746592,-3.5882630416499994,-9.1265195959,-0.003919,0.374601,1.494266,0.00012999999999999123,0.00015799999999999148,-3.099999999999978e-05,-0.000201869842518132,0.00011619238201987514,3.753489187152681e-05
1504196534.14,-1.0,-0.11592440964999999,0.0195740734,-0.08651426629999999,0.00266,0.152106,-0.006424,-0.022643554849999997,-3.5872431500499995,-9.1269707018,-0.002481,0.374488,1.494259,0.00014000000000000123,0.00017300000000000648,-1.8000000000000654e-05,-0.00024197949025994703,0.00013421915367151094,5.562748426501951e-05
1504196534.15,-1.0,-0.07812958055,0.011405133949999998,-0.0609581364,0.02271,0.119977,-0.013802,-0.01344491715,-3.5877432892,-9.1267941821,-0.001473,0.374543,1.494256,0.00014000000000000123,0.0001729999999999926,-1.4000000000000123e-05,-0.0002582828556825234,0.0001249475626288188,4.572562548343928e-05
1504196534.17,-1.0,-0.0875733845,0.014337322299999998,-0.062105514449999996,0.03316,0.087931,-0.021199,-0.00401091985,-3.5906754775499996,-9.12564680405,-0.000439,0.374865,1.49404,0.00014000000000000123,0.00017200000000000548,-1.4000000000000123e-05,-0.00025198696152672895,0.0001481708183290742,7.642818871955726e-05
1504196534.18,-1.0,-0.0060310897499999995,-0.0423843413,-0.0027360553499999997,0.022201,0.052854,-0.019021,0.0022947561,-3.5938037989,-9.124411166149999,0.000251,0.375208,1.493817,0.00014000000000000123,0.0001779999999999976,-1.899999999999992e-05,-0.0002519741171500556,0.00014818988170306469,7.639037083484457e-05
1504196534.19,-1.0,0.0177892631,-0.10802024975,0.031136113749999996,-0.001488,0.030663,-0.010485,0.00644296905,-3.5959612619,-9.123567794249999,0.000707,0.375444,1.493667,0.00014000000000000123,0.00020000000000000573,-2.1000000000000185e-05,-0.0003475666055370308,0.00017647546997712205,7.556666629426889e-05
1504196534.2,-1.0,-0.00911037785,-0.15479797025,-0.03221484525,-0.020833,0.018026,-0.001957,0.00836507245,-3.5964712077,-9.1233618546,0.000917,0.3755,1.493628,0.00014000000000000123,0.0002309999999999951,-2.099999999999845e-05,-0.00043871174601051166,0.0002133877740082557,7.411436350190925e-05
1504196534.21,-1.0,-0.01791674955,-0.1643398407,-0.034382114899999996,-0.020901,0.011628,0.002324,0.009237864299999999,-3.5966575340499998,-9.1232834014,0.001013,0.375521,1.493653,0.00012999999999999123,0.00025999999999999635,-2.1000000000000185e-05,-0.0005393033803413605,0.00022978996827616172,5.0955569020905145e-05
1504196534.22,-1.0,-0.01897586775,-0.12276945135,0.007502087249999999,-0.013523,0.005165,0.010887,0.00924767095,-3.59706941335,-9.123126495,0.001014,0.375566,1.493754,0.0001300000000000051,0.00027699999999999947,-2.300000000000045e-05,-0.0005791959412537739,0.00024129042135556666,5.6150567234292126e-05
1504196534.23,-1.0,0.018259982299999998,-0.08256218634999998,0.0338329425,0.001271,-0.005625,0.022673,0.0083748791,-3.5982167914,-9.1226753891,0.000918,0.375692,1.493952,0.00014999999999999736,0.00028700000000000947,-2.3999999999999716e-05,-0.0005648933540423062,0.00023690226210981713,5.954270218200275e-05
1504196534.24,-1.0,0.032067745499999994,-0.06269391345,0.0388539473,0.011814,-0.011057,0.039779,0.0066979419499999995,-3.6002859945499996,-9.121861437149999,0.000734,0.375919,1.494301,0.00014999999999999736,0.0002909999999999996,-2.599999999999998e-05,-0.0005284922786858992,0.00021263651818137497,3.982296462223811e-05
1504196534.25,-1.0,0.0354412331,-0.061575955349999996,0.05928119925,0.012867,-0.002557,0.056844,0.0049621649000000006,-3.6027572703499997,-9.120880772149999,0.000544,0.376189,1.494838,0.00016000000000000736,0.0002950000000000036,-2.599999999999998e-05,-0.00048356091578138916,0.00021310654524686612,5.664615146072638e-05
1504196534.26,-1.0,-0.02154521005,-0.0905349928,0.07261824324999999,0.009773,0.013446,0.062147,0.00328522775,-3.6068564500499996,-9.1192626749,0.00036,0.376639,1.495515,0.00025999999999999635,0.00013900000000000023,3.749999999999934e-05,-0.0003948393854573684,0.00018998863915786757,9.175863279609064e-05
1504196534.27,-1.0,-0.02240819525,-0.0897700741,0.0723142371,0.008941,0.040097,0.057829,0.00414821295,-3.60762136875,-9.11895866875,0.000455,0.376723,1.49616,0.00025999999999999635,0.00013899999999998636,3.7500000000001074e-05,-0.0003948182045576676,0.00019002413624424896,9.168270779491561e-05
1504196534.28,-1.0,-0.06020302435,-0.0940065469,0.08931896819999999,0.009136,0.061411,0.053523,0.00648219565,-3.6104162639999995,-9.117850517299999,0.000711,0.377029,1.496794,0.00027000000000000635,0.00014400000000000523,3.999999999999837e-05,-0.00036807069949240656,0.00020267825339281842,0.00011833307846842445
1504196534.29,-1.0,-0.08696537219999999,-0.0797672911,0.14387336215,0.013404,0.060309,0.052465,0.00885540495,-3.61358381195,-9.1165952661,0.000971,0.377377,1.497411,0.00027499999999999747,0.00015049999999999786,4.4000000000000636e-05,-0.00036412402172025793,0.00019496762405379897,0.00010493574897318947
1504196534.3,-1.0,-0.09030943984999999,-0.06902900935,0.14877668715,0.022794,0.034653,0.054663,0.0091986377,-3.6174476320499998,-9.1150654287,0.001009,0.3778,1.498056,0.00027499999999999747,0.00015049999999999786,4.4000000000000636e-05,-0.00036409790910796325,0.00019500391509597037,0.00010486309306911856
1504196534.31,-1.0,-0.07214752405,-0.07162777159999999,0.17512715569999998,0.032054,-0.00805,0.055822,0.006158576199999999,-3.6223215370999995,-9.113133518649999,0.000676,0.378335,1.498714,0.00028000000000000247,0.00015800000000000536,4.5999999999999167e-05,-0.00040082452525247447,0.00023998594095475667,0.00015190626329886214
